$GPGSV,3,1,09,02,01,127,,05,17,067,,10,11,270,,13,41,047,,1*6A
$GPGSV,3,2,09,15,75,061,,20,33,286,,21,51,319,,24,19,151,,1*64
$GPGSV,3,3,09,29,43,205,,1*56
$GLGSV,2,1,08,78,02,095,,70,05,239,,82,16,156,,77,03,047,,1*77
$GLGSV,2,2,08,69,54,275,,84,49,326,,83,65,164,,67,04,043,,1*71
$GAGSV,1,1,0,7*43
$PQGSV,1,1,0,0*43
$PQGSV,1,1,0,0*43
$GPGSA,A,1,,,,,,,,,,,,,,,*1E
$GNGSA,A,1,,,,,,,,,,,,,,,*00
$PQGSA,A,1,,,,,,,,,,,,,,,*08
$GPVTG,,T,,M,,N,,K,N*2C
$GPRMC,,V,,,,,,,,,,N,V*29
$GPGGA,,,,,,0,,,,,,,,*66
$GPGSV,3,1,09,02,01,127,,05,17,067,,10,11,270,,13,41,047,,1*6A
$GPGSV,3,2,09,15,75,061,,20,33,286,,21,51,319,,24,19,151,,1*64
$GPGSV,3,3,09,29,43,205,,1*56
$GLGSV,2,1,08,78,02,095,,70,05,239,,82,16,156,,77,03,047,,1*77
$GLGSV,2,2,08,69,54,275,,84,49,326,,83,65,164,,67,04,043,,1*71
$GAGSV,1,1,0,7*43
$PQGSV,1,1,0,0*43
$PQGSV,1,1,0,0*43
$GPGSA,A,1,,,,,,,,,,,,,,,*1E
$GNGSA,A,1,,,,,,,,,,,,,,,*00
$PQGSA,A,1,,,,,,,,,,,,,,,*08
$GPVTG,,T,,M,,N,,K,N*2C
$GPRMC,,V,,,,,,,,,,N,V*29
$GPGGA,,,,,,0,,,,,,,,*66
$GPGSV,3,1,09,02,01,127,,05,17,067,,10,11,270,,13,41,047,,1*6A
$GPGSV,3,2,09,15,75,061,,20,33,286,,21,51,319,,24,19,151,,1*64
$GPGSV,3,3,09,29,43,205,,1*56
$GLGSV,2,1,08,78,02,095,,70,05,239,,82,16,156,,77,03,047,,1*77
$GLGSV,2,2,08,69,54,275,,84,49,326,,83,65,164,,67,04,043,,1*71
$GAGSV,1,1,0,7*43
$PQGSV,1,1,0,0*43
$PQGSV,1,1,0,0*43
$GPGSA,A,1,,,,,,,,,,,,,,,*1E
$GNGSA,A,1,,,,,,,,,,,,,,,*00
$PQGSA,A,1,,,,,,,,,,,,,,,*08
$GPVTG,,T,,M,,N,,K,N*2C
$GPRMC,,V,,,,,,,,,,N,V*29
$GPGGA,,,,,,0,,,,,,,,*66
$GPGSV,3,1,09,02,01,127,,05,17,067,,10,11,270,,13,41,047,,1*6A
$GPGSV,3,2,09,15,75,061,,20,33,286,,21,51,319,,24,19,151,,1*64
$GPGSV,3,3,09,29,43,205,,1*56
$GLGSV,2,1,08,78,02,095,,70,05,239,,82,16,156,,77,03,047,,1*77
$GLGSV,2,2,08,69,54,275,,84,49,326,,83,65,164,,67,04,043,,1*71
$GAGSV,1,1,0,7*43
$PQGSV,1,1,0,0*43
$PQGSV,1,1,0,0*43
$GPGSA,A,1,,,,,,,,,,,,,,,*1E
$GNGSA,A,1,,,,,,,,,,,,,,,*00
$PQGSA,A,1,,,,,,,,,,,,,,,*08
$GPVTG,,T,,M,,N,,K,N*2C
$GPRMC,,V,,,,,,,,,,N,V*29
$GPGGA,,,,,,0,,,,,,,,*66
$GPGSV,3,1,09,02,01,127,,05,17,067,,10,11,270,,13,41,047,,1*6A
$GPGSV,3,2,09,15,75,061,,20,33,286,,21,51,319,,24,19,151,,1*64
$GPGSV,3,3,09,29,43,205,,1*56
$GLGSV,2,1,08,78,02,095,,70,05,239,,82,16,156,,77,03,047,,1*77
$GLGSV,2,2,08,69,54,275,,84,49,326,,83,65,164,,67,04,043,,1*71
$GAGSV,1,1,0,7*43
$PQGSV,1,1,0,0*43
$PQGSV,1,1,0,0*43
$GPGSA,A,1,,,,,,,,,,,,,,,*1E
$GNGSA,A,1,,,,,,,,,,,,,,,*00
$PQGSA,A,1,,,,,,,,,,,,,,,*08
$GPVTG,,T,,M,,N,,K,N*2C
$GPRMC,,V,,,,,,,,,,N,V*29
$GPGGA,,,,,,0,,,,,,,,*66
$GPGSV,3,1,09,02,01,127,,05,17,067,,10,11,270,,13,41,047,,1*6A
$GPGSV,3,2,09,15,75,061,,20,33,286,,21,51,319,,24,19,151,,1*64
$GPGSV,3,3,09,29,43,205,,1*56
$GLGSV,2,1,08,78,02,095,,70,05,239,,82,16,156,,77,03,047,,1*77
$GLGSV,2,2,08,69,54,275,,84,49,326,,83,65,164,,67,04,043,,1*71
$GAGSV,1,1,0,7*43
$PQGSV,1,1,0,0*43
$PQGSV,1,1,0,0*43
$GPGSA,A,1,,,,,,,,,,,,,,,*1E
$GNGSA,A,1,,,,,,,,,,,,,,,*00
$PQGSA,A,1,,,,,,,,,,,,,,,*08
$GPVTG,,T,,M,,N,,K,N*2C
$GPRMC,,V,,,,,,,,,,N,V*29
$GPGGA,,,,,,0,,,,,,,,*66
$GPGSV,3,1,09,02,01,127,,05,17,067,,10,11,270,,13,41,047,,1*6A
$GPGSV,3,2,09,15,75,061,,20,33,286,,21,51,319,,24,19,151,,1*64
$GPGSV,3,3,09,29,43,205,,1*56
$GLGSV,2,1,08,78,02,095,,70,05,239,,82,16,156,,77,03,047,,1*77
$GLGSV,2,2,08,69,54,275,,84,49,326,,83,65,164,,67,04,043,,1*71
$GAGSV,1,1,0,7*43
$PQGSV,1,1,0,0*43
$PQGSV,1,1,0,0*43
$GPGSA,A,1,,,,,,,,,,,,,,,*1E
$GNGSA,A,1,,,,,,,,,,,,,,,*00
$PQGSA,A,1,,,,,,,,,,,,,,,*08
$GPVTG,,T,,M,,N,,K,N*2C
$GPRMC,,V,,,,,,,,,,N,V*29
$GPGGA,,,,,,0,,,,,,,,*66
$GPGSV,3,1,09,02,01,127,,05,17,067,,10,11,270,,13,41,047,,1*6A
$GPGSV,3,2,09,15,75,061,,20,33,286,,21,51,319,,24,19,151,,1*64
$GPGSV,3,3,09,29,43,205,,1*56
$GLGSV,2,1,08,78,02,095,,70,05,239,,82,16,156,,77,03,047,,1*77
$GLGSV,2,2,08,69,54,275,,84,49,326,,83,65,164,,67,04,043,,1*71
$GAGSV,1,1,0,7*43
$PQGSV,1,1,0,0*43
$PQGSV,1,1,0,0*43
$GPGSA,A,1,,,,,,,,,,,,,,,*1E
$GNGSA,A,1,,,,,,,,,,,,,,,*00
$PQGSA,A,1,,,,,,,,,,,,,,,*08
$GPVTG,,T,,M,,N,,K,N*2C
$GPRMC,,V,,,,,,,,,,N,V*29
$GPGGA,,,,,,0,,,,,,,,*66
$GPGSV,3,1,09,02,01,127,,05,17,067,,10,11,270,,13,41,047,,1*6A
$GPGSV,3,2,09,15,75,061,,20,33,286,,21,51,319,,24,19,151,,1*64
$GPGSV,3,3,09,29,43,205,,1*56
$GLGSV,2,1,08,78,02,095,,70,05,239,,82,16,156,,77,03,047,,1*77
$GLGSV,2,2,08,69,54,275,,84,49,326,,83,65,164,,67,04,043,,1*71
$GAGSV,1,1,0,7*43
$PQGSV,1,1,0,0*43
$PQGSV,1,1,0,0*43
$GPGSA,A,1,,,,,,,,,,,,,,,*1E
$GNGSA,A,1,,,,,,,,,,,,,,,*00
$PQGSA,A,1,,,,,,,,,,,,,,,*08
$GPVTG,,T,,M,,N,,K,N*2C
$GPRMC,,V,,,,,,,,,,N,V*29
$GPGGA,,,,,,0,,,,,,,,*66
$GPGSV,3,1,09,02,01,127,,05,17,067,,10,11,270,,13,41,047,,1*6A
$GPGSV,3,2,09,15,75,061,,20,33,286,,21,51,319,,24,19,151,,1*64
$GPGSV,3,3,09,29,43,205,,1*56
$GLGSV,2,1,08,78,02,095,,70,05,239,,82,16,156,,77,03,047,,1*77
$GLGSV,2,2,08,69,54,275,,84,49,326,,83,65,164,,67,04,043,,1*71
$GAGSV,1,1,0,7*43
$PQGSV,1,1,0,0*43
$PQGSV,1,1,0,0*43
$GPGSA,A,1,,,,,,,,,,,,,,,*1E
$GNGSA,A,1,,,,,,,,,,,,,,,*00
$PQGSA,A,1,,,,,,,,,,,,,,,*08
$GPVTG,,T,,M,,N,,K,N*2C
$GPRMC,,V,,,,,,,,,,N,V*29
$GPGGA,,,,,,0,,,,,,,,*66
$GPGSV,3,1,09,02,01,127,,05,17,067,,10,11,270,,13,41,047,,1*6A
$GPGSV,3,2,09,15,75,061,,20,33,286,,21,51,319,,24,19,151,,1*64
$GPGSV,3,3,09,29,43,205,,1*56
$GLGSV,2,1,08,78,02,095,,70,05,239,,82,16,156,,77,03,047,,1*77
$GLGSV,2,2,08,69,54,275,,84,49,326,,83,65,164,,67,04,043,,1*71
$GAGSV,1,1,0,7*43
$PQGSV,1,1,0,0*43
$PQGSV,1,1,0,0*43
$GPGSA,A,1,,,,,,,,,,,,,,,*1E
$GNGSA,A,1,,,,,,,,,,,,,,,*00
$PQGSA,A,1,,,,,,,,,,,,,,,*08
$GPVTG,,T,,M,,N,,K,N*2C
$GPRMC,,V,,,,,,,,,,N,V*29
$GPGGA,,,,,,0,,,,,,,,*66
$GPGSV,3,1,09,02,01,127,,05,17,067,,10,11,270,,13,41,047,,1*6A
$GPGSV,3,2,09,15,75,061,,20,33,286,,21,51,319,,24,19,151,,1*64
$GPGSV,3,3,09,29,43,205,,1*56
$GLGSV,2,1,08,78,02,095,,70,05,239,,82,16,156,,77,03,047,,1*77
$GLGSV,2,2,08,69,54,275,,84,49,326,,83,65,164,,67,04,043,,1*71
$GAGSV,1,1,0,7*43
$PQGSV,1,1,0,0*43
$PQGSV,1,1,0,0*43
$GPGSA,A,1,,,,,,,,,,,,,,,*1E
$GNGSA,A,1,,,,,,,,,,,,,,,*00
$PQGSA,A,1,,,,,,,,,,,,,,,*08
$GPVTG,,T,,M,,N,,K,N*2C
$GPRMC,,V,,,,,,,,,,N,V*29
$GPGGA,,,,,,0,,,,,,,,*66
$GPGSV,3,1,09,02,01,127,,05,17,067,,10,11,270,,13,41,047,,1*6A
$GPGSV,3,2,09,15,75,061,,20,33,286,,21,51,319,,24,19,151,,1*64
$GPGSV,3,3,09,29,43,205,,1*56
$GLGSV,2,1,08,78,02,095,,70,05,239,,82,16,156,,77,03,047,,1*77
$GLGSV,2,2,08,69,54,275,,84,49,326,,83,65,164,,67,04,043,,1*71
$GAGSV,1,1,0,7*43
$PQGSV,1,1,0,0*43
$PQGSV,1,1,0,0*43
$GPGSA,A,1,,,,,,,,,,,,,,,*1E
$GNGSA,A,1,,,,,,,,,,,,,,,*00
$PQGSA,A,1,,,,,,,,,,,,,,,*08
$GPVTG,,T,,M,,N,,K,N*2C
$GPRMC,,V,,,,,,,,,,N,V*29
$GPGGA,,,,,,0,,,,,,,,*66
$GPGSV,3,1,09,02,01,127,,05,17,067,,10,11,270,,13,41,047,,1*6A
$GPGSV,3,2,09,15,75,061,,20,33,286,,21,51,319,,24,19,151,,1*64
$GPGSV,3,3,09,29,43,205,,1*56
$GLGSV,2,1,08,78,02,095,,70,05,239,,82,16,156,,77,03,047,,1*77
$GLGSV,2,2,08,69,54,275,,84,49,326,,83,65,164,,67,04,043,,1*71
$GAGSV,1,1,0,7*43
$PQGSV,1,1,0,0*43
$PQGSV,1,1,0,0*43
$GPGSA,A,1,,,,,,,,,,,,,,,*1E
$GNGSA,A,1,,,,,,,,,,,,,,,*00
$PQGSA,A,1,,,,,,,,,,,,,,,*08
$GPVTG,,T,,M,,N,,K,N*2C
$GPRMC,,V,,,,,,,,,,N,V*29
$GPGGA,,,,,,0,,,,,,,,*66
$GPGSV,3,1,09,02,01,127,,05,17,067,,10,11,270,,13,41,047,,1*6A
$GPGSV,3,2,09,15,75,061,,20,33,286,,21,51,319,,24,19,151,,1*64
$GPGSV,3,3,09,29,43,205,,1*56
$GLGSV,2,1,08,78,02,095,,70,05,239,,82,16,156,,77,03,047,,1*77
$GLGSV,2,2,08,69,54,275,,84,49,326,,83,65,164,,67,04,043,,1*71
$GAGSV,1,1,0,7*43
$PQGSV,1,1,0,0*43
$PQGSV,1,1,0,0*43
$GPGSA,A,1,,,,,,,,,,,,,,,*1E
$GNGSA,A,1,,,,,,,,,,,,,,,*00
$PQGSA,A,1,,,,,,,,,,,,,,,*08
$GPVTG,,T,,M,,N,,K,N*2C
$GPRMC,,V,,,,,,,,,,N,V*29
$GPGGA,,,,,,0,,,,,,,,*66
$GPGSV,3,1,09,02,01,127,,05,17,067,,10,11,270,,13,41,047,,1*6A
$GPGSV,3,2,09,15,75,061,,20,33,286,,21,51,319,,24,19,151,,1*64
$GPGSV,3,3,09,29,43,205,,1*56
$GLGSV,2,1,08,78,02,095,,70,05,239,,82,16,156,,77,03,047,,1*77
$GLGSV,2,2,08,69,54,275,,84,49,326,,83,65,164,,67,04,043,,1*71
$GAGSV,1,1,0,7*43
$PQGSV,1,1,0,0*43
$PQGSV,1,1,0,0*43
$GPGSA,A,1,,,,,,,,,,,,,,,*1E
$GNGSA,A,1,,,,,,,,,,,,,,,*00
$PQGSA,A,1,,,,,,,,,,,,,,,*08
$GPVTG,,T,,M,,N,,K,N*2C
$GPRMC,,V,,,,,,,,,,N,V*29
$GPGGA,,,,,,0,,,,,,,,*66
$GPGSV,3,1,09,02,01,127,,05,17,067,,10,11,270,,13,41,047,,1*6A
$GPGSV,3,2,09,15,75,061,,20,33,286,,21,51,319,,24,19,151,,1*64
$GPGSV,3,3,09,29,43,205,,1*56
$GLGSV,2,1,08,78,02,095,,70,05,239,,82,16,156,,77,03,047,,1*77
$GLGSV,2,2,08,69,54,275,,84,49,326,,83,65,164,,67,04,043,,1*71
$GAGSV,1,1,0,7*43
$PQGSV,1,1,0,0*43
$PQGSV,1,1,0,0*43
$GPGSA,A,1,,,,,,,,,,,,,,,*1E
$GNGSA,A,1,,,,,,,,,,,,,,,*00
$PQGSA,A,1,,,,,,,,,,,,,,,*08
$GPVTG,,T,,M,,N,,K,N*2C
$GPRMC,,V,,,,,,,,,,N,V*29
$GPGGA,,,,,,0,,,,,,,,*66
$GPGSV,3,1,09,02,01,127,,05,17,067,,10,11,270,,13,41,047,,1*6A
$GPGSV,3,2,09,15,75,061,,20,33,286,,21,51,319,,24,19,151,,1*64
$GPGSV,3,3,09,29,43,205,,1*56
$GLGSV,2,1,08,78,02,095,,70,05,239,,82,16,156,,77,03,047,,1*77
$GLGSV,2,2,08,69,54,275,,84,49,326,,83,65,164,,67,04,043,,1*71
$GAGSV,1,1,0,7*43
$PQGSV,1,1,0,0*43
$PQGSV,1,1,0,0*43
$GPGSA,A,1,,,,,,,,,,,,,,,*1E
$GNGSA,A,1,,,,,,,,,,,,,,,*00
$PQGSA,A,1,,,,,,,,,,,,,,,*08
$GPVTG,,T,,M,,N,,K,N*2C
$GPRMC,,V,,,,,,,,,,N,V*29
$GPGGA,,,,,,0,,,,,,,,*66
$GPGSV,3,1,09,02,01,127,,05,17,067,,10,11,270,,13,41,047,,1*6A
$GPGSV,3,2,09,15,75,061,,20,33,286,,21,51,319,,24,19,151,,1*64
$GPGSV,3,3,09,29,43,205,,1*56
$GLGSV,2,1,08,78,02,095,,70,05,239,,82,16,156,,77,03,047,,1*77
$GLGSV,2,2,08,69,54,275,,84,49,326,,83,65,164,,67,04,043,,1*71
$GAGSV,1,1,0,7*43
$PQGSV,1,1,0,0*43
$PQGSV,1,1,0,0*43
$GPGSA,A,1,,,,,,,,,,,,,,,*1E
$GNGSA,A,1,,,,,,,,,,,,,,,*00
$PQGSA,A,1,,,,,,,,,,,,,,,*08
$GPVTG,,T,,M,,N,,K,N*2C
$GPRMC,,V,,,,,,,,,,N,V*29
$GPGGA,,,,,,0,,,,,,,,*66
$GPGSV,3,1,09,02,01,127,,05,17,067,,10,11,270,,13,41,047,,1*6A
$GPGSV,3,2,09,15,75,061,,20,33,286,,21,51,319,,24,19,151,,1*64
$GPGSV,3,3,09,29,43,205,,1*56
$GLGSV,2,1,08,78,02,095,,70,05,239,,82,16,156,,77,03,047,,1*77
$GLGSV,2,2,08,69,54,275,,84,49,326,,83,65,164,,67,04,043,,1*71
$GAGSV,1,1,0,7*43
$PQGSV,1,1,0,0*43
$PQGSV,1,1,0,0*43
$GPGSA,A,1,,,,,,,,,,,,,,,*1E
$GNGSA,A,1,,,,,,,,,,,,,,,*00
$PQGSA,A,1,,,,,,,,,,,,,,,*08
$GPVTG,,T,,M,,N,,K,N*2C
$GPRMC,,V,,,,,,,,,,N,V*29
$GPGGA,,,,,,0,,,,,,,,*66
$GPGSV,3,1,09,02,01,127,,05,17,067,,10,11,270,,13,41,047,,1*6A
$GPGSV,3,2,09,15,75,061,,20,33,286,,21,51,319,,24,19,151,,1*64
$GPGSV,3,3,09,29,43,205,,1*56
$GLGSV,2,1,08,78,02,095,,70,05,239,,82,16,156,,77,03,047,,1*77
$GLGSV,2,2,08,69,54,275,,84,49,326,,83,65,164,,67,04,043,,1*71
$GAGSV,1,1,0,7*43
$PQGSV,1,1,0,0*43
$PQGSV,1,1,0,0*43
$GPGSA,A,1,,,,,,,,,,,,,,,*1E
$GNGSA,A,1,,,,,,,,,,,,,,,*00
$PQGSA,A,1,,,,,,,,,,,,,,,*08
$GPVTG,,T,,M,,N,,K,N*2C
$GPRMC,,V,,,,,,,,,,N,V*29
$GPGGA,,,,,,0,,,,,,,,*66
$GPGSV,3,1,09,02,01,127,,05,17,068,,10,11,270,,13,41,047,,1*65
$GPGSV,3,2,09,15,75,060,,20,33,286,,21,51,319,,24,19,151,,1*65
$GPGSV,3,3,09,29,42,205,,1*57
$GLGSV,2,1,08,78,02,094,,70,05,239,,82,15,156,,77,03,047,,1*75
$GLGSV,2,2,08,69,54,275,,84,49,326,,83,65,164,,67,04,043,,1*71
$GAGSV,1,1,0,7*43
$PQGSV,1,1,0,0*43
$PQGSV,1,1,0,0*43
$GPGSA,A,1,,,,,,,,,,,,,,,*1E
$GNGSA,A,1,,,,,,,,,,,,,,,*00
$PQGSA,A,1,,,,,,,,,,,,,,,*08
$GPVTG,,T,,M,,N,,K,N*2C
$GPRMC,,V,,,,,,,,,,N,V*29
$GPGGA,,,,,,0,,,,,,,,*66
$GPGSV,3,1,09,02,01,127,,05,17,068,,10,11,270,,13,41,047,,1*65
$GPGSV,3,2,09,15,75,060,,20,33,286,,21,51,319,,24,19,151,,1*65
$GPGSV,3,3,09,29,42,205,,1*57
$GLGSV,2,1,08,78,02,094,,70,05,239,,82,15,156,,77,03,047,,1*75
$GLGSV,2,2,08,69,54,275,,84,49,326,,83,65,164,,67,04,043,,1*71
$GAGSV,1,1,0,7*43
$PQGSV,1,1,0,0*43
$PQGSV,1,1,0,0*43
$GPGSA,A,1,,,,,,,,,,,,,,,*1E
$GNGSA,A,1,,,,,,,,,,,,,,,*00
$PQGSA,A,1,,,,,,,,,,,,,,,*08
$GPVTG,,T,,M,,N,,K,N*2C
$GPRMC,,V,,,,,,,,,,N,V*29
$GPGGA,,,,,,0,,,,,,,,*66
$GPGSV,3,1,09,02,01,127,,05,17,068,,10,11,270,,13,41,047,,1*65
$GPGSV,3,2,09,15,75,060,,20,33,286,,21,51,319,,24,19,151,,1*65
$GPGSV,3,3,09,29,42,205,,1*57
$GLGSV,2,1,08,78,02,094,,70,05,239,,82,15,156,,77,03,047,,1*75
$GLGSV,2,2,08,69,54,275,,84,49,326,,83,65,164,,67,04,043,,1*71
$GAGSV,1,1,0,7*43
$PQGSV,1,1,0,0*43
$PQGSV,1,1,0,0*43
$GPGSA,A,1,,,,,,,,,,,,,,,*1E
$GNGSA,A,1,,,,,,,,,,,,,,,*00
$PQGSA,A,1,,,,,,,,,,,,,,,*08
$GPVTG,,T,,M,,N,,K,N*2C
$GPRMC,,V,,,,,,,,,,N,V*29
$GPGGA,,,,,,0,,,,,,,,*66
$GPGSV,3,1,09,02,01,127,,05,17,068,,10,11,270,,13,41,047,,1*65
$GPGSV,3,2,09,15,75,060,,20,33,286,,21,51,319,,24,19,151,,1*65
$GPGSV,3,3,09,29,42,205,,1*57
$GLGSV,2,1,08,78,02,094,,70,05,239,,82,15,156,,77,03,047,,1*75
$GLGSV,2,2,08,69,54,275,,84,49,326,,83,65,164,,67,04,043,,1*71
$GAGSV,1,1,0,7*43
$PQGSV,1,1,0,0*43
$PQGSV,1,1,0,0*43
$GPGSA,A,1,,,,,,,,,,,,,,,*1E
$GNGSA,A,1,,,,,,,,,,,,,,,*00
$PQGSA,A,1,,,,,,,,,,,,,,,*08
$GPVTG,,T,,M,,N,,K,N*2C
$GPRMC,,V,,,,,,,,,,N,V*29
$GPGGA,,,,,,0,,,,,,,,*66
$GPGSV,3,1,09,02,01,127,,05,17,068,,10,11,270,,13,41,047,,1*65
$GPGSV,3,2,09,15,75,060,,20,33,286,,21,51,319,,24,19,151,,1*65
$GPGSV,3,3,09,29,42,205,,1*57
$GLGSV,2,1,08,78,02,094,,70,05,239,,82,15,156,,77,03,047,,1*75
$GLGSV,2,2,08,69,54,275,,84,49,326,,83,65,164,,67,04,043,,1*71
$GAGSV,1,1,0,7*43
$PQGSV,1,1,0,0*43
$PQGSV,1,1,0,0*43
$GPGSA,A,1,,,,,,,,,,,,,,,*1E
$GNGSA,A,1,,,,,,,,,,,,,,,*00
$PQGSA,A,1,,,,,,,,,,,,,,,*08
$GPVTG,,T,,M,,N,,K,N*2C
$GPRMC,,V,,,,,,,,,,N,V*29
$GPGGA,,,,,,0,,,,,,,,*66
$GPGSV,3,1,09,02,01,127,,05,17,068,,10,11,270,,13,41,047,,1*65
$GPGSV,3,2,09,15,75,060,,20,33,286,,21,51,319,,24,19,151,,1*65
$GPGSV,3,3,09,29,42,205,,1*57
$GLGSV,2,1,08,78,02,094,,70,05,239,,82,15,156,,77,03,047,,1*75
$GLGSV,2,2,08,69,54,275,,84,49,326,,83,65,164,,67,04,043,,1*71
$GAGSV,1,1,0,7*43
$PQGSV,1,1,0,0*43
$PQGSV,1,1,0,0*43
$GPGSA,A,1,,,,,,,,,,,,,,,*1E
$GNGSA,A,1,,,,,,,,,,,,,,,*00
$PQGSA,A,1,,,,,,,,,,,,,,,*08
$GPVTG,,T,,M,,N,,K,N*2C
$GPRMC,,V,,,,,,,,,,N,V*29
$GPGGA,,,,,,0,,,,,,,,*66
$GPGSV,3,1,09,02,01,127,,05,17,068,,10,11,270,,13,41,047,,1*65
$GPGSV,3,2,09,15,75,060,,20,33,286,,21,51,319,,24,19,151,,1*65
$GPGSV,3,3,09,29,42,205,,1*57
$GLGSV,2,1,08,78,02,094,,70,05,239,,82,15,156,,77,03,047,,1*75
$GLGSV,2,2,08,69,54,275,,84,49,326,,83,65,164,,67,04,043,,1*71
$GAGSV,1,1,0,7*43
$PQGSV,1,1,0,0*43
$PQGSV,1,1,0,0*43
$GPGSA,A,1,,,,,,,,,,,,,,,*1E
$GNGSA,A,1,,,,,,,,,,,,,,,*00
$PQGSA,A,1,,,,,,,,,,,,,,,*08
$GPVTG,,T,,M,,N,,K,N*2C
$GPRMC,,V,,,,,,,,,,N,V*29
$GPGGA,,,,,,0,,,,,,,,*66
$GPGSV,3,1,09,02,01,127,,05,17,068,,10,11,270,,13,41,047,,1*65
$GPGSV,3,2,09,15,75,060,,20,33,286,,21,51,319,,24,19,151,,1*65
$GPGSV,3,3,09,29,42,205,,1*57
$GLGSV,2,1,08,78,02,094,,70,05,239,,82,15,156,,77,03,047,,1*75
$GLGSV,2,2,08,69,54,275,,84,49,326,,83,65,164,,67,04,043,,1*71
$GAGSV,1,1,0,7*43
$PQGSV,1,1,0,0*43
$PQGSV,1,1,0,0*43
$GPGSA,A,1,,,,,,,,,,,,,,,*1E
$GNGSA,A,1,,,,,,,,,,,,,,,*00
$PQGSA,A,1,,,,,,,,,,,,,,,*08
$GPVTG,,T,,M,,N,,K,N*2C
$GPRMC,,V,,,,,,,,,,N,V*29
$GPGGA,,,,,,0,,,,,,,,*66
$GPGSV,3,1,09,02,01,127,,05,17,068,,10,11,270,,13,41,047,,1*65
$GPGSV,3,2,09,15,75,060,,20,33,286,,21,51,319,,24,19,151,,1*65
$GPGSV,3,3,09,29,42,205,,1*57
$GLGSV,2,1,08,78,02,094,,70,05,239,,82,15,156,,77,03,047,,1*75
$GLGSV,2,2,08,69,54,275,,84,49,326,,83,65,164,,67,04,043,,1*71
$GAGSV,1,1,0,7*43
$PQGSV,1,1,0,0*43
$PQGSV,1,1,0,0*43
$GPGSA,A,1,,,,,,,,,,,,,,,*1E
$GNGSA,A,1,,,,,,,,,,,,,,,*00
$PQGSA,A,1,,,,,,,,,,,,,,,*08
$GPVTG,,T,,M,,N,,K,N*2C
$GPRMC,,V,,,,,,,,,,N,V*29
$GPGGA,,,,,,0,,,,,,,,*66
$GPGSV,3,1,09,02,01,127,,05,17,068,,10,11,270,,13,41,047,,1*65
$GPGSV,3,2,09,15,75,060,,20,33,286,,21,51,319,,24,19,151,,1*65
$GPGSV,3,3,09,29,42,205,,1*57
$GLGSV,2,1,08,78,02,094,,70,05,239,,82,15,156,,77,03,047,,1*75
$GLGSV,2,2,08,69,54,275,,84,49,326,,83,65,164,,67,04,043,,1*71
$GAGSV,1,1,0,7*43
$PQGSV,1,1,0,0*43
$PQGSV,1,1,0,0*43
$GPGSA,A,1,,,,,,,,,,,,,,,*1E
$GNGSA,A,1,,,,,,,,,,,,,,,*00
$PQGSA,A,1,,,,,,,,,,,,,,,*08
$GPVTG,,T,,M,,N,,K,N*2C
$GPRMC,,V,,,,,,,,,,N,V*29
$GPGGA,,,,,,0,,,,,,,,*66
$GPGSV,3,1,09,02,01,127,,05,17,068,,10,11,270,,13,41,047,,1*65
$GPGSV,3,2,09,15,75,060,,20,33,286,,21,51,319,,24,19,151,,1*65
$GPGSV,3,3,09,29,42,205,,1*57
$GLGSV,2,1,08,78,02,094,,70,05,239,,82,15,156,,77,03,047,,1*75
$GLGSV,2,2,08,69,54,275,,84,49,326,,83,65,164,,67,04,043,,1*71
$GAGSV,1,1,0,7*43
$PQGSV,1,1,0,0*43
$PQGSV,1,1,0,0*43
$GPGSA,A,1,,,,,,,,,,,,,,,*1E
$GNGSA,A,1,,,,,,,,,,,,,,,*00
$PQGSA,A,1,,,,,,,,,,,,,,,*08
$GPVTG,,T,,M,,N,,K,N*2C
$GPRMC,,V,,,,,,,,,,N,V*29
$GPGGA,,,,,,0,,,,,,,,*66
$GPGSV,3,1,09,02,01,127,,05,17,068,,10,11,270,,13,41,047,,1*65
$GPGSV,3,2,09,15,75,060,,20,33,286,,21,51,319,,24,19,151,,1*65
$GPGSV,3,3,09,29,42,205,,1*57
$GLGSV,2,1,08,78,02,094,,70,05,239,,82,15,156,,77,03,047,,1*75
$GLGSV,2,2,08,69,54,275,,84,49,326,,83,65,164,,67,04,043,,1*71
$GAGSV,1,1,0,7*43
$PQGSV,1,1,0,0*43
$PQGSV,1,1,0,0*43
$GPGSA,A,1,,,,,,,,,,,,,,,*1E
$GNGSA,A,1,,,,,,,,,,,,,,,*00
$PQGSA,A,1,,,,,,,,,,,,,,,*08
$GPVTG,,T,,M,,N,,K,N*2C
$GPRMC,,V,,,,,,,,,,N,V*29
$GPGGA,,,,,,0,,,,,,,,*66
$GPGSV,3,1,09,02,01,127,,05,17,068,,10,11,270,,13,41,047,,1*65
$GPGSV,3,2,09,15,75,060,,20,33,286,,21,51,319,,24,19,151,,1*65
$GPGSV,3,3,09,29,42,205,,1*57
$GLGSV,2,1,08,78,02,094,,70,05,239,,82,15,156,,77,03,047,,1*75
$GLGSV,2,2,08,69,54,275,,84,49,326,,83,65,164,,67,04,043,,1*71
$GAGSV,1,1,0,7*43
$PQGSV,1,1,0,0*43
$PQGSV,1,1,0,0*43
$GPGSA,A,1,,,,,,,,,,,,,,,*1E
$GNGSA,A,1,,,,,,,,,,,,,,,*00
$PQGSA,A,1,,,,,,,,,,,,,,,*08
$GPVTG,,T,,M,,N,,K,N*2C
$GPRMC,,V,,,,,,,,,,N,V*29
$GPGGA,,,,,,0,,,,,,,,*66
$GPGSV,3,1,09,02,01,127,,05,17,068,,10,11,270,,13,41,047,,1*65
$GPGSV,3,2,09,15,75,060,,20,33,286,,21,51,319,,24,19,151,,1*65
$GPGSV,3,3,09,29,42,205,,1*57
$GLGSV,2,1,08,78,02,094,,70,05,239,,82,15,156,,77,03,047,,1*75
$GLGSV,2,2,08,69,54,275,,84,49,326,,83,65,164,,67,04,043,,1*71
$GAGSV,1,1,0,7*43
$PQGSV,1,1,0,0*43
$PQGSV,1,1,0,0*43
$GPGSA,A,1,,,,,,,,,,,,,,,*1E
$GNGSA,A,1,,,,,,,,,,,,,,,*00
$PQGSA,A,1,,,,,,,,,,,,,,,*08
$GPVTG,,T,,M,,N,,K,N*2C
$GPRMC,,V,,,,,,,,,,N,V*29
$GPGGA,,,,,,0,,,,,,,,*66
$GPGSV,3,1,09,02,01,127,,05,17,068,,10,11,270,,13,41,047,,1*65
$GPGSV,3,2,09,15,75,060,,20,33,286,,21,51,319,,24,19,151,,1*65
$GPGSV,3,3,09,29,42,205,,1*57
$GLGSV,2,1,08,78,02,094,,70,05,239,,82,15,156,,77,03,047,,1*75
$GLGSV,2,2,08,69,54,275,,84,49,326,,83,65,164,,67,04,043,,1*71
$GAGSV,1,1,0,7*43
$PQGSV,1,1,0,0*43
$PQGSV,1,1,0,0*43
$GPGSA,A,1,,,,,,,,,,,,,,,*1E
$GNGSA,A,1,,,,,,,,,,,,,,,*00
$PQGSA,A,1,,,,,,,,,,,,,,,*08
$GPVTG,,T,,M,,N,,K,N*2C
$GPRMC,,V,,,,,,,,,,N,V*29
$GPGGA,,,,,,0,,,,,,,,*66
$GPGSV,3,1,09,02,01,127,,05,17,068,,10,11,270,,13,41,047,,1*65
$GPGSV,3,2,09,15,75,060,,20,33,286,,21,51,319,,24,19,151,,1*65
$GPGSV,3,3,09,29,42,205,,1*57
$GLGSV,2,1,08,78,02,094,,70,05,239,,82,15,156,,77,03,047,,1*75
$GLGSV,2,2,08,69,54,275,,84,49,326,,83,65,164,,67,04,043,,1*71
$GAGSV,1,1,0,7*43
$PQGSV,1,1,0,0*43
$PQGSV,1,1,0,0*43
$GPGSA,A,1,,,,,,,,,,,,,,,*1E
$GNGSA,A,1,,,,,,,,,,,,,,,*00
$PQGSA,A,1,,,,,,,,,,,,,,,*08
$GPVTG,,T,,M,,N,,K,N*2C
$GPRMC,,V,,,,,,,,,,N,V*29
$GPGGA,,,,,,0,,,,,,,,*66
$GPGSV,3,1,09,02,01,127,,05,17,068,,10,11,270,,13,41,047,,1*65
$GPGSV,3,2,09,15,75,060,,20,33,286,,21,51,319,,24,19,151,,1*65
$GPGSV,3,3,09,29,42,205,,1*57
$GLGSV,2,1,08,78,02,094,,70,05,239,,82,15,156,,77,03,047,,1*75
$GLGSV,2,2,08,69,54,275,,84,49,326,,83,65,164,,67,04,043,,1*71
$GAGSV,1,1,0,7*43
$PQGSV,1,1,0,0*43
$PQGSV,1,1,0,0*43
$GPGSA,A,1,,,,,,,,,,,,,,,*1E
$GNGSA,A,1,,,,,,,,,,,,,,,*00
$PQGSA,A,1,,,,,,,,,,,,,,,*08
$GPVTG,,T,,M,,N,,K,N*2C
$GPRMC,,V,,,,,,,,,,N,V*29
$GPGGA,,,,,,0,,,,,,,,*66
$GPGSV,3,1,09,02,01,127,,05,17,068,,10,11,270,,13,41,047,,1*65
$GPGSV,3,2,09,15,75,060,,20,33,286,,21,51,319,,24,19,151,,1*65
$GPGSV,3,3,09,29,42,205,,1*57
$GLGSV,2,1,08,82,15,156,22,78,02,094,,70,05,239,,77,03,047,,1*75
$GLGSV,2,2,08,69,54,275,,84,49,326,,83,65,164,,67,04,043,,1*71
$GAGSV,1,1,0,7*43
$PQGSV,1,1,0,0*43
$PQGSV,1,1,0,0*43
$GPGSA,A,1,,,,,,,,,,,,,,,*1E
$GNGSA,A,1,,,,,,,,,,,,,,,*00
$PQGSA,A,1,,,,,,,,,,,,,,,*08
$GPVTG,,T,,M,,N,,K,N*2C
$GPRMC,,V,,,,,,,,,,N,V*29
$GPGGA,,,,,,0,,,,,,,,*66
$GPGSV,3,1,09,29,42,205,25,02,01,127,,05,17,068,,10,11,270,,1*6C
$GPGSV,3,2,09,13,41,047,,15,75,060,,20,33,286,,21,51,319,,1*6A
$GPGSV,3,3,09,24,19,151,,1*56
$GLGSV,2,1,08,82,15,156,27,78,02,094,,70,05,239,,77,03,047,,1*70
$GLGSV,2,2,08,69,54,275,,84,49,326,,83,65,164,,67,04,043,,1*71
$GAGSV,1,1,0,7*43
$PQGSV,1,1,0,0*43
$PQGSV,1,1,0,0*43
$GPGSA,A,1,,,,,,,,,,,,,,,*1E
$GNGSA,A,1,,,,,,,,,,,,,,,*00
$PQGSA,A,1,,,,,,,,,,,,,,,*08
$GPVTG,,T,,M,,N,,K,N*2C
$GPRMC,,V,,,,,,,,,,N,V*29
$GPGGA,,,,,,0,,,,,,,,*66
$GPGSV,3,1,09,24,19,151,21,29,42,205,24,02,01,127,,05,17,068,,1*61
$GPGSV,3,2,09,10,11,270,,13,41,047,,15,75,060,,20,33,286,,1*62
$GPGSV,3,3,09,21,51,319,,1*51
$GLGSV,2,1,08,82,15,156,19,78,02,094,,70,05,239,,77,03,047,,1*7D
$GLGSV,2,2,08,69,54,275,,84,49,326,,83,65,164,,67,04,043,,1*71
$GAGSV,1,1,0,7*43
$PQGSV,1,1,0,0*43
$PQGSV,1,1,0,0*43
$GPGSA,A,1,,,,,,,,,,,,,,,*1E
$GNGSA,A,1,,,,,,,,,,,,,,,*00
$PQGSA,A,1,,,,,,,,,,,,,,,*08
$GPVTG,,T,,M,,N,,K,N*2C
$GPRMC,,V,,,,,,,,,,N,V*29
$GPGGA,,,,,,0,,,,,,,,*66
$GPGSV,3,1,09,24,19,151,22,29,42,205,23,02,01,127,,05,17,068,,1*65
$GPGSV,3,2,09,10,11,270,,13,41,047,,15,75,060,,20,33,286,,1*62
$GPGSV,3,3,09,21,51,319,,1*51
$GLGSV,2,1,08,82,15,156,20,78,02,094,,70,05,239,,77,03,047,,1*77
$GLGSV,2,2,08,69,54,275,,84,49,326,,83,65,164,,67,04,043,,1*71
$GAGSV,1,1,0,7*43
$PQGSV,1,1,0,0*43
$PQGSV,1,1,0,0*43
$GPGSA,A,1,,,,,,,,,,,,,,,*1E
$GNGSA,A,1,,,,,,,,,,,,,,,*00
$PQGSA,A,1,,,,,,,,,,,,,,,*08
$GPVTG,,T,,M,,N,,K,N*2C
$GPRMC,,V,,,,,,,,,,N,V*29
$GPGGA,,,,,,0,,,,,,,,*66
$GPGSV,3,1,09,24,19,151,25,29,42,205,31,02,00,000,,05,16,068,,1*65
$GPGSV,3,2,09,10,11,270,,13,41,047,,15,75,060,,20,33,286,,1*62
$GPGSV,3,3,09,21,51,319,,1*51
$GLGSV,2,1,08,82,15,156,26,78,02,094,,70,05,239,,77,03,047,,1*71
$GLGSV,2,2,08,69,54,277,,84,49,326,,83,64,164,,67,03,043,,1*75
$GAGSV,1,1,0,7*43
$PQGSV,1,1,0,0*43
$PQGSV,1,1,0,0*43
$GPGSA,A,1,,,,,,,,,,,,,,,*1E
$GNGSA,A,1,,,,,,,,,,,,,,,*00
$PQGSA,A,1,,,,,,,,,,,,,,,*08
$GPVTG,,T,,M,,N,,K,N*2C
$GPRMC,,V,,,,,,,,,,N,V*29
$GPGGA,,,,,,0,,,,,,,,*66
$GPGSA,A,1,,,,,,,,,,,,,,,*1E
$GNGSA,A,1,,,,,,,,,,,,,,,*00
$PQGSA,A,1,,,,,,,,,,,,,,,*08
$GPVTG,,T,,M,,N,,K,N*2C
$GPRMC,,V,,,,,,,,,,N,V*29
$GPGGA,,,,,,0,,,,,,,,*66
$GPGSV,3,1,09,24,19,151,24,29,42,205,29,02,00,000,,05,16,068,,1*6D
$GPGSV,3,2,09,10,11,270,,13,41,047,,15,75,060,,20,33,286,,1*62
$GPGSV,3,3,09,21,51,319,,1*51
$GLGSV,2,1,08,82,15,156,27,67,03,043,15,78,02,094,,70,05,239,,1*71
$GLGSV,2,2,08,77,03,047,,69,54,277,,84,49,326,,83,64,164,,1*70
$GAGSV,1,1,0,7*43
$PQGSV,1,1,0,0*43
$PQGSV,1,1,0,0*43
$GPGSA,A,1,,,,,,,,,,,,,,,*1E
$GNGSA,A,1,,,,,,,,,,,,,,,*00
$PQGSA,A,1,,,,,,,,,,,,,,,*08
$GPVTG,,T,,M,,N,,K,N*2C
$GPRMC,,V,,,,,,,,,,N,V*29
$GPGGA,,,,,,0,,,,,,,,*66
$GPGSV,3,1,09,05,16,068,14,24,19,151,26,29,42,205,29,02,00,000,,1*6A
$GPGSV,3,2,09,10,11,270,,13,41,047,,15,75,060,,20,33,286,,1*62
$GPGSV,3,3,09,21,51,319,,1*51
$GLGSV,2,1,08,82,15,156,25,67,03,043,15,78,02,094,,70,05,239,,1*73
$GLGSV,2,2,08,77,03,047,,69,54,277,,84,49,326,,83,64,164,,1*70
$GAGSV,1,1,0,7*43
$PQGSV,1,1,0,0*43
$PQGSV,1,1,0,0*43
$GPGSA,A,1,,,,,,,,,,,,,,,*1E
$GNGSA,A,1,,,,,,,,,,,,,,,*00
$PQGSA,A,1,,,,,,,,,,,,,,,*08
$GPVTG,,T,,M,,N,,K,N*2C
$GPRMC,,V,,,,,,,,,,N,V*29
$GPGGA,,,,,,0,,,,,,,,*66
$GPGSV,3,1,09,05,16,068,14,24,19,151,27,29,42,205,30,02,00,000,,1*63
$GPGSV,3,2,09,10,11,270,,13,41,047,,15,75,060,,20,33,286,,1*62
$GPGSV,3,3,09,21,51,319,,1*51
$GLGSV,2,1,08,82,15,156,27,67,03,043,15,78,02,094,,70,05,239,,1*71
$GLGSV,2,2,08,77,03,047,,69,54,277,,84,49,326,,83,64,164,,1*70
$GAGSV,1,1,0,7*43
$PQGSV,1,1,0,0*43
$PQGSV,1,1,0,0*43
$GPGSA,A,1,,,,,,,,,,,,,,,*1E
$GNGSA,A,1,,,,,,,,,,,,,,,*00
$PQGSA,A,1,,,,,,,,,,,,,,,*08
$GPVTG,,T,,M,,N,,K,N*2C
$GPRMC,,V,,,,,,,,,,N,V*29
$GPGGA,,,,,,0,,,,,,,,*66
$GPGSV,3,1,09,05,16,068,15,24,19,151,27,29,42,205,29,02,00,000,,1*6A
$GPGSV,3,2,09,10,11,270,,13,41,047,,15,75,060,,20,33,286,,1*62
$GPGSV,3,3,09,21,51,319,,1*51
$GLGSV,2,1,08,82,15,156,28,67,03,043,15,78,02,094,,70,05,239,,1*7E
$GLGSV,2,2,08,77,03,047,,69,54,277,,84,49,326,,83,64,164,,1*70
$GAGSV,1,1,0,7*43
$PQGSV,1,1,0,0*43
$PQGSV,1,1,0,0*43
$GPGSA,A,1,,,,,,,,,,,,,,,*1E
$GNGSA,A,1,,,,,,,,,,,,,,,*00
$PQGSA,A,1,,,,,,,,,,,,,,,*08
$GPVTG,,T,,M,,N,,K,N*2C
$GPRMC,,V,,,,,,,,,,N,V*29
$GPGGA,,,,,,0,,,,,,,,*66
$GPGSV,3,1,09,05,16,068,15,24,19,151,27,29,42,205,28,02,00,000,,1*6B
$GPGSV,3,2,09,10,11,270,,13,41,047,,15,75,060,,20,33,286,,1*62
$GPGSV,3,3,09,21,51,319,,1*51
$GLGSV,2,1,08,82,15,156,25,67,03,043,15,78,02,094,,70,05,239,,1*73
$GLGSV,2,2,08,77,03,047,,69,54,277,,84,49,326,,83,64,164,,1*70
$GAGSV,1,1,0,7*43
$PQGSV,1,1,0,0*43
$PQGSV,1,1,0,0*43
$GPGSA,A,1,,,,,,,,,,,,,,,*1E
$GNGSA,A,1,,,,,,,,,,,,,,,*00
$PQGSA,A,1,,,,,,,,,,,,,,,*08
$GPVTG,,T,,M,,N,,K,N*2C
$GPRMC,,V,,,,,,,,,,N,V*29
$GPGGA,,,,,,0,,,,,,,,*66
$GPGSV,3,1,09,05,16,068,15,24,19,151,25,29,42,205,32,02,00,000,,1*62
$GPGSV,3,2,09,10,11,270,,13,41,047,,15,75,060,,20,33,286,,1*62
$GPGSV,3,3,09,21,51,319,,1*51
$GLGSV,2,1,08,82,15,156,28,67,03,043,14,78,02,094,,70,05,239,,1*7F
$GLGSV,2,2,08,77,03,047,,69,54,277,,84,49,326,,83,64,164,,1*70
$GAGSV,1,1,0,7*43
$PQGSV,1,1,0,0*43
$PQGSV,1,1,0,0*43
$GPGSA,A,1,,,,,,,,,,,,,,,*1E
$GNGSA,A,1,,,,,,,,,,,,,,,*00
$PQGSA,A,1,,,,,,,,,,,,,,,*08
$GPVTG,,T,,M,,N,,K,N*2C
$GPRMC,,V,,,,,,,,,,N,V*29
$GPGGA,,,,,,0,,,,,,,,*66
$GPGSV,3,1,09,05,16,068,15,24,19,151,26,29,42,205,31,02,00,000,,1*62
$GPGSV,3,2,09,10,11,270,,13,41,047,,15,75,060,,20,33,286,,1*62
$GPGSV,3,3,09,21,51,319,,1*51
$GLGSV,2,1,08,82,15,156,30,67,03,043,14,78,02,094,,70,05,239,,1*76
$GLGSV,2,2,08,77,03,047,,69,54,277,,84,49,326,,83,64,164,,1*70
$GAGSV,1,1,0,7*43
$PQGSV,1,1,0,0*43
$PQGSV,1,1,0,0*43
$GPGSA,A,1,,,,,,,,,,,,,,,*1E
$GNGSA,A,1,,,,,,,,,,,,,,,*00
$PQGSA,A,1,,,,,,,,,,,,,,,*08
$GPVTG,,T,,M,,N,,K,N*2C
$GPRMC,,V,,,,,,,,,,N,V*29
$GPGGA,,,,,,0,,,,,,,,*66
$GPGSV,3,1,09,05,16,068,15,24,19,151,26,29,42,205,31,02,00,000,,1*62
$GPGSV,3,2,09,10,11,270,,13,41,047,,15,75,060,,20,33,286,,1*62
$GPGSV,3,3,09,21,51,319,,1*51
$GLGSV,2,1,08,82,15,156,26,67,03,043,14,78,02,094,,70,05,239,,1*71
$GLGSV,2,2,08,77,03,047,,69,54,277,,84,49,326,,83,64,164,,1*70
$GAGSV,1,1,0,7*43
$PQGSV,1,1,0,0*43
$PQGSV,1,1,0,0*43
$GPGSA,A,1,,,,,,,,,,,,,,,*1E
$GNGSA,A,1,,,,,,,,,,,,,,,*00
$PQGSA,A,1,,,,,,,,,,,,,,,*08
$GPVTG,,T,,M,,N,,K,N*2C
$GPRMC,,V,,,,,,,,,,N,V*29
$GPGGA,,,,,,0,,,,,,,,*66
$GPGSV,3,1,09,05,16,068,18,24,19,151,28,29,42,205,32,02,00,000,,1*62
$GPGSV,3,2,09,10,11,270,,13,41,047,,15,75,060,,20,33,286,,1*62
$GPGSV,3,3,09,21,51,319,,1*51
$GLGSV,2,1,08,82,15,156,29,67,03,043,14,78,02,094,,70,05,239,,1*7E
$GLGSV,2,2,08,77,03,047,,69,54,277,,84,49,326,,83,64,164,,1*70
$GAGSV,1,1,0,7*43
$PQGSV,1,1,0,0*43
$PQGSV,1,1,0,0*43
$GPGSA,A,1,,,,,,,,,,,,,,,*1E
$GNGSA,A,1,,,,,,,,,,,,,,,*00
$PQGSA,A,1,,,,,,,,,,,,,,,*08
$GPVTG,,T,,M,,N,,K,N*2C
$GPRMC,,V,,,,,,,,,,N,V*29
$GPGGA,,,,,,0,,,,,,,,*66
$GPGSV,3,1,09,05,16,068,18,24,19,151,29,29,42,205,31,02,00,000,,1*60
$GPGSV,3,2,09,10,11,270,,13,41,047,,15,75,060,,20,33,286,,1*62
$GPGSV,3,3,09,21,51,319,,1*51
$GLGSV,2,1,08,82,15,156,29,67,03,043,14,78,02,094,,70,05,239,,1*7E
$GLGSV,2,2,08,77,03,047,,69,54,277,,84,49,326,,83,64,164,,1*70
$GAGSV,1,1,0,7*43
$PQGSV,1,1,0,0*43
$PQGSV,1,1,0,0*43
$GPGSA,A,1,,,,,,,,,,,,,,,*1E
$GNGSA,A,1,,,,,,,,,,,,,,,*00
$PQGSA,A,1,,,,,,,,,,,,,,,*08
$GPVTG,,T,,M,,N,,K,N*2C
$GPRMC,,V,,,,,,,,,,N,V*29
$GPGGA,,,,,,0,,,,,,,,*66
$GPGSV,3,1,09,05,16,068,18,24,19,151,28,29,42,205,24,02,00,000,,1*65
$GPGSV,3,2,09,10,11,270,,13,41,047,,15,75,060,,20,33,286,,1*62
$GPGSV,3,3,09,21,51,319,,1*51
$GLGSV,2,1,08,82,15,156,26,67,03,043,14,78,02,094,,70,05,239,,1*71
$GLGSV,2,2,08,77,03,047,,69,54,277,,84,49,326,,83,64,164,,1*70
$GAGSV,1,1,0,7*43
$PQGSV,1,1,0,0*43
$PQGSV,1,1,0,0*43
$GPGSA,A,1,,,,,,,,,,,,,,,*1E
$GNGSA,A,1,,,,,,,,,,,,,,,*00
$PQGSA,A,1,,,,,,,,,,,,,,,*08
$GPVTG,,T,,M,,N,,K,N*2C
$GPRMC,,V,,,,,,,,,,N,V*29
$GPGGA,,,,,,0,,,,,,,,*66
$GPGSV,3,1,09,05,16,068,18,24,19,151,27,29,42,205,22,02,00,000,,1*6C
$GPGSV,3,2,09,10,11,270,,13,41,047,,15,75,060,,20,33,286,,1*62
$GPGSV,3,3,09,21,51,319,,1*51
$GLGSV,2,1,08,82,15,156,24,67,03,043,14,78,02,094,,70,05,239,,1*73
$GLGSV,2,2,08,77,03,047,,69,54,277,,84,49,326,,83,64,164,,1*70
$GAGSV,1,1,0,7*43
$PQGSV,1,1,0,0*43
$PQGSV,1,1,0,0*43
$GPGSA,A,1,,,,,,,,,,,,,,,*1E
$GNGSA,A,1,,,,,,,,,,,,,,,*00
$PQGSA,A,1,,,,,,,,,,,,,,,*08
$GPVTG,,T,,M,,N,,K,N*2C
$GPRMC,,V,,,,,,,,,,N,V*29
$GPGGA,,,,,,0,,,,,,,,*66
$GPGSV,3,1,09,05,16,068,18,24,19,151,18,29,42,205,21,02,00,000,,1*63
$GPGSV,3,2,09,10,11,270,,13,41,047,,15,75,060,,20,33,286,,1*62
$GPGSV,3,3,09,21,51,319,,1*51
$GLGSV,2,1,08,82,15,156,22,67,03,043,14,78,02,094,,70,05,239,,1*75
$GLGSV,2,2,08,77,03,047,,69,54,277,,84,49,326,,83,64,164,,1*70
$GAGSV,1,1,0,7*43
$PQGSV,1,1,0,0*43
$PQGSV,1,1,0,0*43
$GPGSA,A,1,,,,,,,,,,,,,,,*1E
$GNGSA,A,1,,,,,,,,,,,,,,,*00
$PQGSA,A,1,,,,,,,,,,,,,,,*08
$GPVTG,,T,,M,,N,,K,N*2C
$GPRMC,,V,,,,,,,,,,N,V*29
$GPGGA,,,,,,0,,,,,,,,*66
$GPGSV,3,1,09,05,16,068,18,24,19,151,17,29,42,205,19,02,00,000,,1*67
$GPGSV,3,2,09,10,11,270,,13,41,047,,15,75,060,,20,33,286,,1*62
$GPGSV,3,3,09,21,51,319,,1*51
$GLGSV,2,1,08,82,15,156,18,67,03,043,14,78,02,094,,70,05,239,,1*7C
$GLGSV,2,2,08,77,03,047,,69,54,277,,84,49,326,,83,64,164,,1*70
$GAGSV,1,1,0,7*43
$PQGSV,1,1,0,0*43
$PQGSV,1,1,0,0*43
$GPGSA,A,1,,,,,,,,,,,,,,,*1E
$GNGSA,A,1,,,,,,,,,,,,,,,*00
$PQGSA,A,1,,,,,,,,,,,,,,,*08
$GPVTG,,T,,M,,N,,K,N*2C
$GPRMC,,V,,,,,,,,,,N,V*29
$GPGGA,,,,,,0,,,,,,,,*66
$GPGSV,3,1,09,05,16,068,18,24,19,151,19,29,42,205,19,02,00,000,,1*69
$GPGSV,3,2,09,10,11,270,,13,41,047,,15,75,060,,20,33,286,,1*62
$GPGSV,3,3,09,21,51,319,,1*51
$GLGSV,2,1,08,82,15,156,18,67,03,043,14,78,02,094,,70,05,239,,1*7C
$GLGSV,2,2,08,77,03,047,,69,54,277,,84,49,326,,83,64,164,,1*70
$GAGSV,1,1,0,7*43
$PQGSV,1,1,0,0*43
$PQGSV,1,1,0,0*43
$GPGSA,A,1,,,,,,,,,,,,,,,*1E
$GNGSA,A,1,,,,,,,,,,,,,,,*00
$PQGSA,A,1,,,,,,,,,,,,,,,*08
$GPVTG,,T,,M,,N,,K,N*2C
$GPRMC,,V,,,,,,,,,,N,V*29
$GPGGA,,,,,,0,,,,,,,,*66
$GPGSV,3,1,09,05,16,068,18,24,19,151,28,29,42,205,21,02,00,000,,1*60
$GPGSV,3,2,09,10,11,270,,13,41,047,,15,75,060,,20,33,286,,1*62
$GPGSV,3,3,09,21,51,319,,1*51
$GLGSV,2,1,08,82,15,156,22,67,03,043,14,78,02,094,,70,05,239,,1*75
$GLGSV,2,2,08,77,03,047,,69,54,277,,84,49,326,,83,64,164,,1*70
$GAGSV,1,1,0,7*43
$PQGSV,1,1,0,0*43
$PQGSV,1,1,0,0*43
$GPGSA,A,1,,,,,,,,,,,,,,,*1E
$GNGSA,A,1,,,,,,,,,,,,,,,*00
$PQGSA,A,1,,,,,,,,,,,,,,,*08
$GPVTG,,T,,M,,N,,K,N*2C
$GPRMC,,V,,,,,,,,,,N,V*29
$GPGGA,,,,,,0,,,,,,,,*66
$GPGSV,3,1,09,05,16,068,15,15,75,060,15,24,19,151,26,29,42,205,26,1*62
$GPGSV,3,2,09,02,00,000,,10,11,270,,13,41,047,,20,33,286,,1*60
$GPGSV,3,3,09,21,51,319,,1*51
$GLGSV,2,1,08,82,15,156,25,67,03,043,14,78,02,094,,70,05,239,,1*72
$GLGSV,2,2,08,77,03,047,,69,54,277,,84,49,326,,83,64,164,,1*70
$GAGSV,1,1,0,7*43
$PQGSV,1,1,0,0*43
$PQGSV,1,1,0,0*43
$GNGSA,A,3,05,15,24,29,,,,,,,,,2.1,1.9,1.0,1*37
$GNGSA,A,2,82,,,,,,,,,,,,2.1,1.9,1.0,2*33
$GNVTG,186.0,T,186.0,M,2.6,N,4.8,K,A*35
$GNRMC,135427.00,A,3346.526058,N,08423.837146,W,2.6,186.0,101219,2.8,W,A,V*50
$GNGGA,135427.00,3346.526058,N,08423.837146,W,1,05,1.9,285.1,M,-26.8,M,,*48
$GPGSV,3,1,09,05,16,068,22,13,41,047,13,15,75,060,30,24,19,151,27,1*68
$GPGSV,3,2,09,29,42,205,29,02,00,000,,10,11,270,,20,33,286,,1*65
$GPGSV,3,3,09,21,51,319,,1*51
$GLGSV,2,1,08,82,15,156,23,69,54,277,15,67,03,043,14,78,02,094,,1*76
$GLGSV,2,2,08,70,05,239,,77,03,047,,84,49,326,,83,64,164,,1*76
$GAGSV,1,1,0,7*43
$PQGSV,1,1,0,0*43
$PQGSV,1,1,0,0*43
$GNGSA,A,3,05,13,15,24,29,,,,,,,,1.5,1.2,0.9,1*31
$GNGSA,A,2,69,82,,,,,,,,,,,1.5,1.2,0.9,2*38
$GNVTG,,T,,M,,N,,K,A*3D
$GNRMC,135428.00,A,3346.536666,N,08423.836898,W,,,101219,,,A,V*26
$GNGGA,135428.00,3346.536666,N,08423.836898,W,1,07,1.2,288.2,M,-26.8,M,,*41
$GPGSV,3,1,09,05,16,068,21,13,41,047,14,15,75,060,26,20,33,286,15,1*6F
$GPGSV,3,2,09,21,51,319,15,24,19,151,20,29,42,205,27,02,00,000,,1*60
$GPGSV,3,3,09,10,11,270,,1*59
$GLGSV,2,1,08,82,15,156,23,69,54,277,17,67,03,043,14,78,02,094,,1*74
$GLGSV,2,2,08,70,05,239,,77,03,047,,84,49,326,,83,64,164,,1*76
$GAGSV,1,1,0,7*43
$PQGSV,1,1,0,0*43
$PQGSV,1,1,0,0*43
$GNGSA,A,3,05,13,15,20,21,24,29,,,,,,1.3,0.9,0.9,1*3C
$GNGSA,A,2,69,82,,,,,,,,,,,1.3,0.9,0.9,2*34
$GNVTG,216.2,T,216.2,M,2.5,N,4.6,K,A*38
$GNRMC,135429.00,A,3346.536384,N,08423.837392,W,2.5,216.2,101219,2.8,W,A,V*5D
$GNGGA,135429.00,3346.536384,N,08423.837392,W,1,09,0.9,288.7,M,-26.8,M,,*48
$GPGSV,3,1,09,05,16,068,19,13,41,047,14,15,75,060,26,20,33,286,16,1*67
$GPGSV,3,2,09,21,51,319,16,24,19,151,24,29,42,205,27,02,00,000,,1*67
$GPGSV,3,3,09,10,11,270,,1*59
$GLGSV,2,1,08,82,15,156,20,69,54,277,18,67,03,043,14,78,02,094,,1*78
$GLGSV,2,2,08,70,05,239,,77,03,047,,84,49,326,,83,64,164,,1*76
$GAGSV,1,1,0,7*43
$PQGSV,1,1,0,0*43
$PQGSV,1,1,0,0*43
$GNGSA,A,3,05,13,15,20,21,24,29,,,,,,1.3,0.9,0.9,1*3C
$GNGSA,A,2,69,82,,,,,,,,,,,1.3,0.9,0.9,2*34
$GNVTG,217.0,T,217.0,M,2.5,N,4.6,K,A*38
$GNRMC,135430.00,A,3346.535966,N,08423.837689,W,2.5,217.0,101219,2.8,W,A,V*5C
$GNGGA,135430.00,3346.535966,N,08423.837689,W,1,09,0.9,285.8,M,-26.8,M,,*48
$GPGSV,3,1,09,05,16,068,19,13,41,047,15,15,75,060,27,20,33,286,21,1*63
$GPGSV,3,2,09,21,51,319,19,24,19,151,23,29,42,205,27,02,00,000,,1*6F
$GPGSV,3,3,09,10,11,270,,1*59
$GLGSV,2,1,08,82,15,156,18,69,54,277,21,67,03,043,14,78,02,094,,1*79
$GLGSV,2,2,08,70,05,239,,77,03,047,,84,49,326,,83,64,164,,1*76
$GAGSV,1,1,0,7*43
$PQGSV,1,1,0,0*43
$PQGSV,1,1,0,0*43
$GNGSA,A,3,05,13,15,20,21,24,29,,,,,,1.3,0.9,0.9,1*3C
$GNGSA,A,2,69,82,,,,,,,,,,,1.3,0.9,0.9,2*34
$GNVTG,237.9,T,237.9,M,2.5,N,4.6,K,A*38
$GNRMC,135431.00,A,3346.536253,N,08423.838966,W,2.5,237.9,101219,2.8,W,A,V*59
$GNGGA,135431.00,3346.536253,N,08423.838966,W,1,09,0.9,285.7,M,-26.8,M,,*49
$GPGSV,3,1,09,05,16,068,18,13,41,047,17,15,75,060,24,20,33,286,24,1*66
$GPGSV,3,2,09,21,51,319,20,24,19,151,19,29,42,205,27,02,00,000,,1*6C
$GPGSV,3,3,09,10,11,270,,1*59
$GLGSV,2,1,08,82,15,156,18,69,54,277,25,67,03,043,14,78,02,094,,1*7D
$GLGSV,2,2,08,70,05,239,,77,03,047,,84,49,326,,83,64,164,,1*76
$GAGSV,1,1,0,7*43
$PQGSV,1,1,0,0*43
$PQGSV,1,1,0,0*43
$GNGSA,A,3,05,13,15,20,21,24,29,,,,,,1.3,0.9,0.9,1*3C
$GNGSA,A,2,69,82,,,,,,,,,,,1.3,0.9,0.9,2*34
$GNVTG,276.8,T,276.8,M,2.6,N,4.8,K,A*35
$GNRMC,135432.00,A,3346.537536,N,08423.840990,W,2.6,276.8,101219,2.8,W,A,V*5E
$GNGGA,135432.00,3346.537536,N,08423.840990,W,1,09,0.9,285.3,M,-26.8,M,,*4D
$GPGSV,3,1,09,05,16,068,20,13,41,047,17,15,75,060,24,20,33,286,26,1*6F
$GPGSV,3,2,09,21,51,319,23,24,19,151,21,29,42,205,24,02,00,000,,1*67
$GPGSV,3,3,09,10,11,270,,1*59
$GLGSV,2,1,08,82,15,156,18,69,54,277,27,67,03,043,14,78,02,094,,1*7F
$GLGSV,2,2,08,70,05,239,,77,03,047,,84,49,326,,83,64,164,,1*76
$GAGSV,1,1,0,7*43
$PQGSV,1,1,0,0*43
$PQGSV,1,1,0,0*43
$GNGSA,A,3,05,13,15,20,21,24,29,,,,,,1.3,0.9,0.9,1*3C
$GNGSA,A,2,69,82,,,,,,,,,,,1.3,0.9,0.9,2*34
$GNVTG,317.4,T,317.4,M,2.5,N,4.7,K,A*39
$GNRMC,135433.00,A,3346.539218,N,08423.842777,W,2.5,317.4,101219,2.8,W,A,V*56
$GNGGA,135433.00,3346.539218,N,08423.842777,W,1,09,0.9,285.1,M,-26.8,M,,*4E
$GPGSV,3,1,09,05,16,068,20,13,41,047,18,15,75,060,20,20,33,286,30,1*63
$GPGSV,3,2,09,21,51,319,32,24,19,151,18,29,42,205,36,02,00,000,,1*6E
$GPGSV,3,3,09,10,11,270,,1*59
$GLGSV,2,1,08,82,15,156,20,69,54,277,30,84,49,326,17,67,03,043,14,1*72
$GLGSV,2,2,08,78,02,094,,70,05,239,,77,03,047,,83,64,164,,1*70
$GAGSV,1,1,0,7*43
$PQGSV,1,1,0,0*43
$PQGSV,1,1,0,0*43
$GNGSA,A,3,05,13,15,20,21,24,29,,,,,,1.3,0.9,0.9,1*3C
$GNGSA,A,2,69,82,,,,,,,,,,,1.3,0.9,0.9,2*34
$GNVTG,323.3,T,323.3,M,2.5,N,4.7,K,A*39
$GNRMC,135434.00,A,3346.540540,N,08423.844465,W,2.5,323.3,101219,2.8,W,A,V*53
$GNGGA,135434.00,3346.540540,N,08423.844465,W,1,09,0.9,284.8,M,-26.8,M,,*43
$GPGSV,3,1,09,05,16,068,18,13,41,047,18,15,75,060,32,20,33,286,26,1*6C
$GPGSV,3,2,09,21,51,319,29,24,19,151,18,29,42,205,39,02,00,000,,1*6B
$GPGSV,3,3,09,10,11,270,,1*59
$GLGSV,2,1,08,82,15,156,21,69,54,277,29,84,49,326,19,83,64,164,18,1*76
$GLGSV,2,2,08,67,03,043,14,78,02,094,,70,05,239,,77,03,047,,1*7A
$GAGSV,1,1,0,7*43
$PQGSV,1,1,0,0*43
$PQGSV,1,1,0,0*43
$GNGSA,A,3,05,13,15,20,21,24,29,,,,,,1.3,0.9,0.9,1*3C
$GNGSA,A,2,69,82,,,,,,,,,,,1.3,0.9,0.9,2*34
$GNVTG,318.0,T,318.0,M,2.5,N,4.6,K,A*38
$GNRMC,135435.00,A,3346.541671,N,08423.845480,W,2.5,318.0,101219,2.8,W,A,V*53
$GNGGA,135435.00,3346.541671,N,08423.845480,W,1,09,0.9,285.8,M,-26.8,M,,*49
$GPGSV,3,1,09,05,16,068,20,13,41,047,23,15,75,060,35,20,33,286,25,1*6B
$GPGSV,3,2,09,21,51,319,28,24,19,151,18,29,42,205,38,02,00,000,,1*6B
$GPGSV,3,3,09,10,11,270,,1*59
$GLGSV,2,1,08,82,15,156,21,69,54,277,30,84,49,326,25,83,64,164,24,1*7E
$GLGSV,2,2,08,67,03,043,14,78,02,094,,70,05,239,,77,03,047,,1*7A
$GAGSV,1,1,0,7*43
$PQGSV,1,1,0,0*43
$PQGSV,1,1,0,0*43
$GNGSA,A,3,05,13,15,20,21,24,29,,,,,,1.2,0.9,0.8,1*3C
$GNGSA,A,3,69,82,83,84,,,,,,,,,1.2,0.9,0.8,2*32
$GNVTG,290.5,T,290.5,M,2.5,N,4.6,K,A*38
$GNRMC,135436.00,A,3346.542173,N,08423.846742,W,2.5,290.5,101219,2.8,W,A,V*5C
$GNGGA,135436.00,3346.542173,N,08423.846742,W,1,11,0.9,285.8,M,-26.8,M,,*4B
$GPGSV,3,1,09,05,16,068,20,13,41,047,21,15,75,060,34,20,33,286,25,1*68
$GPGSV,3,2,09,21,51,319,30,24,19,151,18,29,42,205,37,02,00,000,,1*6D
$GPGSV,3,3,09,10,11,270,,1*59
$GLGSV,2,1,07,82,15,156,19,69,54,277,31,84,49,326,25,83,64,164,25,1*7A
$GLGSV,2,2,07,78,02,094,,70,05,239,,77,03,047,,1*45
$GAGSV,1,1,0,7*43
$PQGSV,1,1,0,0*43
$PQGSV,1,1,0,0*43
$GNGSA,A,3,05,13,15,20,21,24,29,,,,,,1.2,0.9,0.8,1*3C
$GNGSA,A,3,69,82,83,84,,,,,,,,,1.2,0.9,0.8,2*32
$GNVTG,267.6,T,267.6,M,2.5,N,4.6,K,A*38
$GNRMC,135437.00,A,3346.542089,N,08423.847969,W,2.5,267.6,101219,2.8,W,A,V*54
$GNGGA,135437.00,3346.542089,N,08423.847969,W,1,11,0.9,286.6,M,-26.8,M,,*45
$GPGSV,3,1,09,05,16,068,22,13,41,047,24,15,75,060,36,20,33,286,28,1*60
$GPGSV,3,2,09,21,51,319,30,24,19,151,17,29,42,205,37,02,00,000,,1*62
$GPGSV,3,3,09,10,11,270,,1*59
$GLGSV,2,1,08,82,15,156,18,69,54,277,31,84,49,326,26,83,64,164,24,1*76
$GLGSV,2,2,08,78,02,094,,70,05,239,,77,03,047,,67,03,043,,1*7F
$GAGSV,1,1,0,7*43
$PQGSV,1,1,0,0*43
$PQGSV,1,1,0,0*43
$GNGSA,A,3,05,13,15,20,21,24,29,,,,,,1.2,0.9,0.8,1*3C
$GNGSA,A,3,69,82,83,84,,,,,,,,,1.2,0.9,0.8,2*32
$GNVTG,243.3,T,243.3,M,2.5,N,4.6,K,A*38
$GNRMC,135438.00,A,3346.541602,N,08423.848987,W,2.5,243.3,101219,2.8,W,A,V*51
$GNGGA,135438.00,3346.541602,N,08423.848987,W,1,11,0.9,287.3,M,-26.8,M,,*47
$GPGSV,3,1,09,05,16,068,22,13,41,047,29,15,75,060,36,20,33,286,30,1*64
$GPGSV,3,2,09,21,51,319,30,24,19,151,22,29,42,205,38,02,00,000,,1*6B
$GPGSV,3,3,09,10,11,270,,1*59
$GLGSV,2,1,08,82,15,156,20,69,54,277,30,84,49,326,25,83,64,164,22,1*79
$GLGSV,2,2,08,78,02,094,,70,05,239,,77,03,047,,67,03,043,,1*7F
$GAGSV,1,1,0,7*43
$PQGSV,1,1,0,0*43
$PQGSV,1,1,0,0*43
$GNGSA,A,3,05,13,15,20,21,24,29,,,,,,1.2,0.9,0.8,1*3C
$GNGSA,A,3,69,82,83,84,,,,,,,,,1.2,0.9,0.8,2*32
$GNVTG,234.0,T,234.0,M,2.5,N,4.7,K,A*39
$GNRMC,135439.00,A,3346.540929,N,08423.849965,W,2.5,234.0,101219,2.8,W,A,V*59
$GNGGA,135439.00,3346.540929,N,08423.849965,W,1,11,0.9,288.3,M,-26.8,M,,*43
$GPGSV,3,1,09,05,16,068,18,13,41,047,31,15,75,060,34,20,33,286,28,1*6F
$GPGSV,3,2,09,21,51,319,28,24,19,151,20,29,42,205,38,02,00,000,,1*60
$GPGSV,3,3,09,10,11,270,,1*59
$GLGSV,2,1,08,82,15,156,20,69,54,277,30,84,49,326,25,83,64,164,24,1*7F
$GLGSV,2,2,08,78,02,094,,70,05,239,,77,03,047,,67,03,043,,1*7F
$GAGSV,1,1,0,7*43
$PQGSV,1,1,0,0*43
$PQGSV,1,1,0,0*43
$GNGSA,A,3,05,13,15,20,21,24,29,,,,,,1.2,0.9,0.8,1*3C
$GNGSA,A,3,69,82,83,84,,,,,,,,,1.2,0.9,0.8,2*32
$GNVTG,231.3,T,231.3,M,2.6,N,4.8,K,A*35
$GNRMC,135440.00,A,3346.540232,N,08423.850835,W,2.6,231.3,101219,2.8,W,A,V*5F
$GNGGA,135440.00,3346.540232,N,08423.850835,W,1,11,0.9,286.3,M,-26.8,M,,*4E
$GPGSV,3,1,09,05,16,068,22,13,41,047,32,15,75,060,32,20,34,288,27,1*65
$GPGSV,3,2,09,21,51,319,29,24,19,151,21,29,42,203,36,02,00,000,,1*68
$GPGSV,3,3,09,10,11,270,,1*59
$GLGSV,2,1,08,82,15,156,19,69,54,277,28,84,49,326,21,83,64,164,26,1*7A
$GLGSV,2,2,08,78,02,094,,70,06,240,,77,03,047,,67,03,043,,1*72
$GAGSV,1,1,0,7*43
$PQGSV,1,1,0,0*43
$PQGSV,1,1,0,0*43
$GNGSA,A,3,05,13,15,20,21,24,29,,,,,,1.3,0.9,0.9,1*3C
$GNGSA,A,2,69,83,84,,,,,,,,,,1.3,0.9,0.9,2*39
$GNVTG,227.0,T,227.0,M,2.6,N,4.8,K,A*35
$GNRMC,135441.00,A,3346.539539,N,08423.851585,W,2.6,227.0,101219,2.8,W,A,V*5F
$GNGGA,135441.00,3346.539539,N,08423.851585,W,1,10,0.9,287.2,M,-26.8,M,,*4B
$GPGSV,3,1,09,05,16,068,22,13,41,047,31,15,75,059,36,20,34,288,27,1*68
$GPGSV,3,2,09,21,51,319,32,24,19,151,19,29,42,203,40,02,00,000,,1*68
$GPGSV,3,3,09,10,11,270,,1*59
$GLGSV,2,1,08,82,15,156,19,69,54,277,29,84,49,326,26,83,64,164,23,1*79
$GLGSV,2,2,08,78,02,094,,70,06,240,,77,03,047,,67,03,043,,1*72
$GAGSV,1,1,0,7*43
$PQGSV,1,1,0,0*43
$PQGSV,1,1,0,0*43
$GNGSA,A,3,05,13,15,20,21,24,29,,,,,,1.3,0.9,0.9,1*3C
$GNGSA,A,2,69,83,84,,,,,,,,,,1.3,0.9,0.9,2*39
$GNVTG,225.6,T,225.6,M,2.6,N,4.8,K,A*35
$GNRMC,135442.00,A,3346.538809,N,08423.852267,W,2.6,225.6,101219,2.8,W,A,V*5F
$GNGGA,135442.00,3346.538809,N,08423.852267,W,1,10,0.9,287.6,M,-26.8,M,,*4B
$GPGSV,3,1,09,05,16,068,24,13,41,047,32,15,75,059,36,20,34,288,24,1*6E
$GPGSV,3,2,09,21,52,319,34,24,19,151,19,29,42,203,41,02,00,000,,1*6C
$GPGSV,3,3,09,10,11,270,,1*59
$GLGSV,2,1,08,82,15,156,20,69,54,277,28,84,49,326,28,83,64,164,24,1*7B
$GLGSV,2,2,08,78,02,094,,70,06,240,,77,03,047,,67,03,043,,1*72
$GAGSV,1,1,0,7*43
$PQGSV,1,1,0,0*43
$PQGSV,1,1,0,0*43
$GNGSA,A,3,05,13,15,20,21,24,29,,,,,,1.3,0.9,0.9,1*3C
$GNGSA,A,2,69,83,84,,,,,,,,,,1.3,0.9,0.9,2*39
$GNVTG,227.0,T,227.0,M,2.6,N,4.8,K,A*35
$GNRMC,135443.00,A,3346.538114,N,08423.852990,W,2.6,227.0,101219,2.8,W,A,V*5C
$GNGGA,135443.00,3346.538114,N,08423.852990,W,1,10,0.9,287.9,M,-26.8,M,,*43
$GPGSV,3,1,09,05,16,068,25,13,41,047,32,15,75,059,35,20,34,288,25,1*6D
$GPGSV,3,2,09,21,52,319,33,24,19,151,20,29,42,203,41,02,00,000,,1*61
$GPGSV,3,3,09,10,11,270,,1*59
$GLGSV,2,1,08,82,15,156,17,69,54,277,29,84,49,326,23,83,64,164,26,1*77
$GLGSV,2,2,08,78,02,094,,70,06,240,,77,03,047,,67,03,043,,1*72
$GAGSV,1,1,0,7*43
$PQGSV,1,1,0,0*43
$PQGSV,1,1,0,0*43
$GNGSA,A,3,05,13,15,20,21,24,29,,,,,,1.3,0.9,0.9,1*3C
$GNGSA,A,2,69,83,84,,,,,,,,,,1.3,0.9,0.9,2*39
$GNVTG,230.8,T,230.8,M,2.6,N,4.8,K,A*35
$GNRMC,135444.00,A,3346.537505,N,08423.853592,W,2.6,230.8,101219,2.8,W,A,V*51
$GNGGA,135444.00,3346.537505,N,08423.853592,W,1,10,0.9,287.3,M,-26.8,M,,*4A
$GPGSV,3,1,09,05,16,068,23,13,41,047,33,15,75,059,36,20,34,288,28,1*64
$GPGSV,3,2,09,21,52,319,28,24,19,151,20,29,42,203,40,02,00,000,,1*6A
$GPGSV,3,3,09,10,11,270,,1*59
$GLGSV,2,1,08,82,15,156,18,69,54,277,30,84,49,326,25,83,64,164,28,1*78
$GLGSV,2,2,08,78,02,094,,70,06,240,,77,03,047,,67,03,043,,1*72
$GAGSV,1,1,0,7*43
$PQGSV,1,1,0,0*43
$PQGSV,1,1,0,0*43
$GNGSA,A,3,05,13,15,20,21,24,29,,,,,,1.3,0.9,0.9,1*3C
$GNGSA,A,2,69,83,84,,,,,,,,,,1.3,0.9,0.9,2*39
$GNVTG,227.6,T,227.6,M,2.6,N,4.8,K,A*35
$GNRMC,135445.00,A,3346.536924,N,08423.854098,W,2.6,227.6,101219,2.8,W,A,V*5E
$GNGGA,135445.00,3346.536924,N,08423.854098,W,1,10,0.9,287.1,M,-26.8,M,,*4F
$GPGSV,3,1,09,05,16,068,27,13,41,047,32,15,75,059,35,20,34,288,28,1*62
$GPGSV,3,2,09,21,52,319,30,24,20,151,19,29,42,203,41,02,00,000,,1*62
$GPGSV,3,3,09,10,11,270,,1*59
$GLGSV,2,1,08,82,15,156,18,69,54,277,29,84,49,326,24,83,64,164,26,1*7F
$GLGSV,2,2,08,78,02,094,,70,06,240,,77,03,047,,67,03,043,,1*72
$GAGSV,1,1,0,7*43
$PQGSV,1,1,0,0*43
$PQGSV,1,1,0,0*43
$GNGSA,A,3,05,13,15,20,21,24,29,,,,,,1.3,0.9,0.9,1*3C
$GNGSA,A,2,69,83,84,,,,,,,,,,1.3,0.9,0.9,2*39
$GNVTG,224.8,T,224.8,M,2.5,N,4.7,K,A*39
$GNRMC,135446.00,A,3346.536350,N,08423.854552,W,2.5,224.8,101219,2.8,W,A,V*59
$GNGGA,135446.00,3346.536350,N,08423.854552,W,1,10,0.9,287.3,M,-26.8,M,,*44
$GPGSV,3,1,09,05,16,068,28,13,41,047,30,15,75,059,35,20,34,288,24,1*63
$GPGSV,3,2,09,21,52,319,31,24,20,151,22,29,42,203,41,02,00,000,,1*6B
$GPGSV,3,3,09,10,11,270,,1*59
$GLGSV,2,1,08,82,15,156,24,69,55,277,29,84,49,326,26,83,64,164,24,1*71
$GLGSV,2,2,08,78,02,094,,70,06,240,,77,03,047,,67,03,045,,1*74
$GAGSV,1,1,0,7*43
$PQGSV,1,1,0,0*43
$PQGSV,1,1,0,0*43
$GNGSA,A,3,05,13,15,20,21,24,29,,,,,,1.2,0.9,0.8,1*3C
$GNGSA,A,3,69,82,83,84,,,,,,,,,1.2,0.9,0.8,2*32
$GNVTG,219.7,T,219.7,M,2.5,N,4.7,K,A*39
$GNRMC,135447.00,A,3346.535715,N,08423.854944,W,2.5,219.7,101219,2.8,W,A,V*54
$GNGGA,135447.00,3346.535715,N,08423.854944,W,1,11,0.9,287.1,M,-26.8,M,,*4B
$GPGSV,3,1,09,05,16,068,26,13,41,047,30,15,75,059,35,20,34,288,28,1*61
$GPGSV,3,2,09,21,52,319,30,24,20,151,30,29,42,203,38,02,00,000,,1*67
$GPGSV,3,3,09,10,11,270,,1*59
$GLGSV,2,1,08,82,15,156,30,69,55,277,26,84,49,326,22,83,64,164,26,1*7D
$GLGSV,2,2,08,78,02,094,,70,06,240,,77,03,047,,67,03,045,,1*74
$GAGSV,1,1,0,7*43
$PQGSV,1,1,0,0*43
$PQGSV,1,1,0,0*43
$GNGSA,A,3,05,13,15,20,21,24,29,,,,,,1.2,0.9,0.8,1*3C
$GNGSA,A,3,69,82,83,84,,,,,,,,,1.2,0.9,0.8,2*32
$GNVTG,218.1,T,218.1,M,2.5,N,4.7,K,A*39
$GNRMC,135448.00,A,3346.535091,N,08423.855249,W,2.5,218.1,101219,2.8,W,A,V*50
$GNGGA,135448.00,3346.535091,N,08423.855249,W,1,11,0.9,287.6,M,-26.8,M,,*4F
$GPGSV,2,1,08,13,41,047,31,15,75,059,35,20,34,288,27,21,52,319,32,1*69
$GPGSV,2,2,08,24,20,151,32,29,42,203,32,02,00,000,,10,11,270,,1*67
$GLGSV,2,1,08,82,15,156,26,69,55,277,31,84,49,326,25,83,64,164,26,1*7B
$GLGSV,2,2,08,78,02,094,,70,06,240,,77,03,047,,67,03,045,,1*74
$GAGSV,1,1,0,7*43
$PQGSV,1,1,0,0*43
$PQGSV,1,1,0,0*43
$GNGSA,A,3,05,13,15,20,21,24,29,,,,,,1.2,0.9,0.8,1*3C
$GNGSA,A,3,69,82,83,84,,,,,,,,,1.2,0.9,0.8,2*32
$GNVTG,211.8,T,211.8,M,2.5,N,4.7,K,A*39
$GNRMC,135449.00,A,3346.534474,N,08423.855588,W,2.5,211.8,101219,2.8,W,A,V*55
$GNGGA,135449.00,3346.534474,N,08423.855588,W,1,11,0.9,289.3,M,-26.8,M,,*41
$GPGSV,3,1,09,05,16,068,25,13,41,047,30,15,75,059,34,20,34,288,29,1*62
$GPGSV,3,2,09,21,52,319,28,24,20,151,28,29,42,203,39,02,00,000,,1*66
$GPGSV,3,3,09,10,11,270,,1*59
$GLGSV,2,1,08,82,15,156,30,69,55,277,28,84,49,326,27,83,64,164,24,1*74
$GLGSV,2,2,08,78,02,094,,70,06,240,,77,03,047,,67,03,045,,1*74
$GAGSV,1,1,0,7*43
$PQGSV,1,1,0,0*43
$PQGSV,1,1,0,0*43
$GNGSA,A,3,05,13,15,20,21,24,29,,,,,,1.2,0.9,0.8,1*3C
$GNGSA,A,3,69,82,83,84,,,,,,,,,1.2,0.9,0.8,2*32
$GNVTG,206.5,T,206.5,M,2.6,N,4.8,K,A*35
$GNRMC,135450.00,A,3346.533811,N,08423.855920,W,2.6,206.5,101219,2.8,W,A,V*53
$GNGGA,135450.00,3346.533811,N,08423.855920,W,1,11,0.9,290.2,M,-26.8,M,,*46
$GNGSA,A,3,05,13,15,20,21,24,29,,,,,,1.2,0.9,0.8,1*3C
$GNGSA,A,3,69,82,83,84,,,,,,,,,1.2,0.9,0.8,2*32
$GNVTG,201.4,T,201.4,M,2.6,N,4.8,K,A*35
$GNRMC,135451.00,A,3346.533119,N,08423.856186,W,2.6,201.4,101219,2.8,W,A,V*52
$GNGGA,135451.00,3346.533119,N,08423.856186,W,1,11,0.9,290.4,M,-26.8,M,,*47
$GPGSV,3,1,09,05,16,068,22,13,41,047,31,15,75,059,34,20,34,288,26,1*6B
$GPGSV,3,2,09,21,52,319,32,24,20,151,28,29,42,203,41,02,00,000,,1*62
$GPGSV,3,3,09,10,11,270,,1*59
$GLGSV,2,1,08,82,15,156,25,69,55,277,26,84,49,326,22,83,64,164,27,1*78
$GLGSV,2,2,08,78,02,094,,70,06,240,,77,03,047,,67,03,045,,1*74
$GAGSV,1,1,0,7*43
$PQGSV,1,1,0,0*43
$PQGSV,1,1,0,0*43
$GNGSA,A,3,05,13,15,20,21,24,29,,,,,,1.2,0.9,0.8,1*3C
$GNGSA,A,3,69,82,83,84,,,,,,,,,1.2,0.9,0.8,2*32
$GNVTG,205.0,T,205.0,M,2.5,N,4.7,K,A*39
$GNRMC,135452.00,A,3346.532507,N,08423.856596,W,2.5,205.0,101219,2.8,W,A,V*5D
$GNGGA,135452.00,3346.532507,N,08423.856596,W,1,11,0.9,291.5,M,-26.8,M,,*4B
$GPGSV,3,1,09,05,16,068,26,13,41,047,31,15,75,059,36,20,34,288,30,1*6A
$GPGSV,3,2,09,21,52,319,27,24,20,151,30,29,42,203,40,02,00,000,,1*6E
$GPGSV,3,3,09,10,11,270,,1*59
$GLGSV,2,1,07,82,15,156,28,69,55,277,31,83,64,164,27,78,02,094,,1*7A
$GLGSV,2,2,07,70,06,240,,77,03,047,,67,03,045,,1*4B
$GAGSV,1,1,0,7*43
$PQGSV,1,1,0,0*43
$PQGSV,1,1,0,0*43
$GNGSA,A,3,05,13,15,20,21,24,29,,,,,,1.2,0.9,0.8,1*3C
$GNGSA,A,3,69,82,83,84,,,,,,,,,1.2,0.9,0.8,2*32
$GNVTG,209.3,T,209.3,M,2.6,N,4.8,K,A*35
$GNRMC,135453.00,A,3346.531863,N,08423.857208,W,2.6,209.3,101219,2.8,W,A,V*5D
$GNGGA,135453.00,3346.531863,N,08423.857208,W,1,11,0.9,292.7,M,-26.8,M,,*46
$GPGSV,3,1,09,05,16,068,27,13,41,047,35,15,75,059,34,20,34,288,31,1*6C
$GPGSV,3,2,09,21,52,319,23,24,20,151,29,29,42,203,41,02,00,000,,1*63
$GPGSV,3,3,09,10,11,270,,1*59
$GLGSV,2,1,08,82,15,156,31,69,55,277,33,83,64,164,26,78,02,094,,1*7E
$GLGSV,2,2,08,70,06,240,,77,03,047,,84,49,326,,67,03,045,,1*72
$GAGSV,1,1,0,7*43
$PQGSV,1,1,0,0*43
$PQGSV,1,1,0,0*43
$GNGSA,A,3,05,13,15,20,21,24,29,,,,,,1.2,0.9,0.8,1*3C
$GNGSA,A,3,69,82,83,84,,,,,,,,,1.2,0.9,0.8,2*32
$GNVTG,218.2,T,218.2,M,2.6,N,4.8,K,A*35
$GNRMC,135454.00,A,3346.531295,N,08423.857984,W,2.6,218.2,101219,2.8,W,A,V*57
$GNGGA,135454.00,3346.531295,N,08423.857984,W,1,11,0.9,292.0,M,-26.8,M,,*4A
$GNGSA,A,3,05,13,15,20,21,24,29,,,,,,1.2,0.9,0.8,1*3C
$GNGSA,A,3,69,82,83,84,,,,,,,,,1.2,0.9,0.8,2*32
$GNVTG,220.7,T,220.7,M,2.6,N,4.8,K,A*35
$GNRMC,135455.00,A,3346.530772,N,08423.858784,W,2.6,220.7,101219,2.8,W,A,V*54
$GNGGA,135455.00,3346.530772,N,08423.858784,W,1,11,0.9,291.9,M,-26.8,M,,*4D
$GPGSV,3,1,09,05,16,068,28,13,41,047,31,15,75,059,34,20,34,288,30,1*66
$GPGSV,3,2,09,21,52,319,27,24,20,151,26,29,42,203,40,02,00,000,,1*69
$GPGSV,3,3,09,10,11,270,,1*59
$GLGSV,2,1,07,70,06,240,23,82,15,156,26,69,55,277,35,83,64,164,28,1*79
$GLGSV,2,2,07,78,02,094,,77,03,047,,67,03,045,,1*4C
$GAGSV,1,1,0,7*43
$PQGSV,1,1,0,0*43
$PQGSV,1,1,0,0*43
$GNGSA,A,3,05,13,15,20,21,24,29,,,,,,1.1,0.8,0.8,1*3E
$GNGSA,A,3,69,70,82,83,84,,,,,,,,1.1,0.8,0.8,2*37
$GNVTG,227.6,T,227.6,M,2.6,N,4.8,K,A*35
$GNRMC,135456.00,A,3346.530214,N,08423.859601,W,2.6,227.6,101219,2.8,W,A,V*59
$GNGGA,135456.00,3346.530214,N,08423.859601,W,1,12,0.8,293.3,M,-26.8,M,,*4C
$GNGSA,A,3,05,13,15,20,21,24,29,,,,,,1.1,0.8,0.8,1*3E
$GNGSA,A,3,69,70,82,83,84,,,,,,,,1.1,0.8,0.8,2*37
$GNVTG,230.1,T,230.1,M,2.6,N,4.8,K,A*35
$GNRMC,135457.00,A,3346.529714,N,08423.860432,W,2.6,230.1,101219,2.8,W,A,V*5C
$GNGGA,135457.00,3346.529714,N,08423.860432,W,1,12,0.8,293.3,M,-26.8,M,,*48
$GPGSV,3,1,09,05,16,068,26,13,41,047,31,15,75,059,34,20,34,288,27,1*6E
$GPGSV,3,2,09,21,52,319,30,24,20,151,28,29,42,203,39,02,00,000,,1*6F
$GPGSV,3,3,09,10,11,270,,1*59
$GLGSV,2,1,07,82,15,156,26,69,55,277,31,84,49,326,26,83,64,164,27,1*76
$GLGSV,2,2,07,78,02,094,,77,03,047,,67,03,045,,1*4C
$GAGSV,1,1,0,7*43
$PQGSV,1,1,0,0*43
$PQGSV,1,1,0,0*43
$GNGSA,A,3,05,13,15,20,21,24,29,,,,,,1.1,0.8,0.8,1*3E
$GNGSA,A,3,69,70,82,83,84,,,,,,,,1.1,0.8,0.8,2*37
$GNVTG,230.4,T,230.4,M,2.6,N,4.8,K,A*35
$GNRMC,135458.00,A,3346.529284,N,08423.861239,W,2.6,230.4,101219,2.8,W,A,V*56
$GNGGA,135458.00,3346.529284,N,08423.861239,W,1,12,0.8,292.2,M,-26.8,M,,*47
$GPGSV,2,1,08,05,16,068,27,13,41,047,30,15,75,059,32,20,34,288,26,1*69
$GPGSV,2,2,08,24,20,151,25,29,42,203,30,02,00,000,,10,11,270,,1*63
$GLGSV,2,1,08,82,15,156,22,69,55,277,33,84,49,326,22,83,64,164,25,1*79
$GLGSV,2,2,08,78,02,094,,70,06,240,,77,03,047,,67,03,045,,1*74
$GAGSV,1,1,0,7*43
$PQGSV,1,1,0,0*43
$PQGSV,1,1,0,0*43
$GNGSA,A,3,05,13,15,20,21,24,29,,,,,,1.1,0.8,0.8,1*3E
$GNGSA,A,3,69,70,82,83,84,,,,,,,,1.1,0.8,0.8,2*37
$GNVTG,227.1,T,227.1,M,2.5,N,4.7,K,A*39
$GNRMC,135459.00,A,3346.528805,N,08423.861971,W,2.5,227.1,101219,2.8,W,A,V*52
$GNGGA,135459.00,3346.528805,N,08423.861971,W,1,12,0.8,292.2,M,-26.8,M,,*43
$GPGSV,2,1,08,05,16,068,24,13,41,047,31,15,75,059,33,21,52,319,28,1*6C
$GPGSV,2,2,08,24,20,151,25,29,42,203,39,02,00,000,,10,11,270,,1*6A
$GLGSV,2,1,08,82,15,156,25,69,55,277,31,84,49,326,21,83,64,164,26,1*7C
$GLGSV,2,2,08,78,02,094,,70,06,240,,77,03,047,,67,03,045,,1*74
$GAGSV,1,1,0,7*43
$PQGSV,1,1,0,0*43
$PQGSV,1,1,0,0*43
$GNGSA,A,3,05,13,15,20,21,24,29,,,,,,1.1,0.8,0.8,1*3E
$GNGSA,A,3,69,70,82,83,84,,,,,,,,1.1,0.8,0.8,2*37
$GNVTG,224.5,T,224.5,M,2.5,N,4.6,K,A*38
$GNRMC,135500.00,A,3346.528333,N,08423.862601,W,2.5,224.5,101219,2.8,W,A,V*5D
$GNGGA,135500.00,3346.528333,N,08423.862601,W,1,12,0.8,292.0,M,-26.8,M,,*49
$GPGSV,3,1,09,05,16,068,22,13,41,047,31,15,75,059,35,21,52,319,28,1*6C
$GPGSV,3,2,09,24,20,151,28,29,42,203,39,02,00,000,,10,11,270,,1*67
$GPGSV,3,3,09,20,34,288,,1*5A
$GLGSV,2,1,08,82,15,156,26,69,55,277,29,84,49,326,23,83,64,164,25,1*77
$GLGSV,2,2,08,78,02,094,,70,06,240,,77,03,047,,67,03,045,,1*74
$GAGSV,1,1,0,7*43
$PQGSV,1,1,0,0*43
$PQGSV,1,1,0,0*43
$GNGSA,A,3,05,13,15,20,21,24,29,,,,,,1.1,0.8,0.8,1*3E
$GNGSA,A,3,69,70,82,83,84,,,,,,,,1.1,0.8,0.8,2*37
$GNVTG,222.6,T,222.6,M,2.5,N,4.6,K,A*38
$GNRMC,135501.00,A,3346.527805,N,08423.863108,W,2.5,222.6,101219,2.8,W,A,V*57
$GNGGA,135501.00,3346.527805,N,08423.863108,W,1,12,0.8,290.8,M,-26.8,M,,*4C
$GPGSV,3,1,09,05,16,068,25,13,41,047,31,15,75,059,36,21,52,319,28,1*68
$GPGSV,3,2,09,24,20,151,30,29,42,203,36,02,00,000,,10,11,270,,1*61
$GPGSV,3,3,09,20,34,288,,1*5A
$GLGSV,2,1,08,82,15,156,27,69,55,277,32,84,49,326,23,83,64,164,21,1*78
$GLGSV,2,2,08,78,02,094,,70,06,240,,77,03,047,,67,03,045,,1*74
$GAGSV,1,1,0,7*43
$PQGSV,1,1,0,0*43
$PQGSV,1,1,0,0*43
$GNGSA,A,3,05,13,15,20,21,24,29,,,,,,1.1,0.8,0.8,1*3E
$GNGSA,A,3,69,70,82,83,84,,,,,,,,1.1,0.8,0.8,2*37
$GNVTG,222.4,T,222.4,M,2.5,N,4.6,K,A*38
$GNRMC,135502.00,A,3346.527271,N,08423.863582,W,2.5,222.4,101219,2.8,W,A,V*59
$GNGGA,135502.00,3346.527271,N,08423.863582,W,1,12,0.8,290.8,M,-26.8,M,,*40
$GPGSV,3,1,09,05,16,068,28,13,41,047,31,15,75,059,36,21,52,319,27,1*6A
$GPGSV,3,2,09,24,20,151,31,29,42,203,37,02,00,000,,10,11,270,,1*61
$GPGSV,3,3,09,20,34,288,,1*5A
$GLGSV,2,1,08,82,15,156,28,69,55,277,31,84,49,326,21,83,64,164,25,1*72
$GLGSV,2,2,08,78,02,094,,70,06,240,,77,03,047,,67,03,045,,1*74
$GAGSV,1,1,0,7*43
$PQGSV,1,1,0,0*43
$PQGSV,1,1,0,0*43
$GNGSA,A,3,05,13,15,20,21,24,29,,,,,,1.2,0.9,0.8,1*3C
$GNGSA,A,3,69,82,83,84,,,,,,,,,1.2,0.9,0.8,2*32
$GNVTG,218.8,T,218.8,M,2.5,N,4.7,K,A*39
$GNRMC,135503.00,A,3346.526717,N,08423.864060,W,2.5,218.8,101219,2.8,W,A,V*57
$GNGGA,135503.00,3346.526717,N,08423.864060,W,1,11,0.9,290.8,M,-26.8,M,,*49
$GPGSV,3,1,09,05,16,068,26,13,41,047,31,15,75,059,36,21,52,319,22,1*61
$GPGSV,3,2,09,24,20,151,31,29,42,203,37,02,00,000,,10,11,270,,1*61
$GPGSV,3,3,09,20,34,288,,1*5A
$GLGSV,2,1,07,82,15,156,29,69,55,277,31,83,64,164,27,78,02,094,,1*7B
$GLGSV,2,2,07,70,06,240,,77,03,047,,67,03,045,,1*4B
$GAGSV,1,1,0,7*43
$PQGSV,1,1,0,0*43
$PQGSV,1,1,0,0*43
$GNGSA,A,3,05,13,15,20,21,24,29,,,,,,1.2,0.9,0.8,1*3C
$GNGSA,A,3,69,82,83,84,,,,,,,,,1.2,0.9,0.8,2*32
$GNVTG,215.7,T,215.7,M,2.5,N,4.7,K,A*39
$GNRMC,135504.00,A,3346.526133,N,08423.864509,W,2.5,215.7,101219,2.8,W,A,V*58
$GNGGA,135504.00,3346.526133,N,08423.864509,W,1,11,0.9,289.9,M,-26.8,M,,*4D
$GPGSV,3,1,09,05,16,068,28,13,41,047,32,15,75,059,36,20,34,288,23,1*65
$GPGSV,3,2,09,21,52,319,27,24,20,151,34,29,42,203,33,02,00,000,,1*6E
$GPGSV,3,3,09,10,11,270,,1*59
$GLGSV,2,1,08,82,15,156,32,69,55,277,28,84,49,326,26,83,64,164,23,1*70
$GLGSV,2,2,08,78,02,094,,70,06,240,,77,03,047,,67,03,045,,1*74
$GAGSV,1,1,0,7*43
$PQGSV,1,1,0,0*43
$PQGSV,1,1,0,0*43
$GNGSA,A,3,05,13,15,20,21,24,29,,,,,,1.2,0.9,0.8,1*3C
$GNGSA,A,3,69,82,83,84,,,,,,,,,1.2,0.9,0.8,2*32
$GNVTG,213.7,T,213.7,M,2.5,N,4.7,K,A*39
$GNRMC,135505.00,A,3346.525528,N,08423.864930,W,2.5,213.7,101219,2.8,W,A,V*54
$GNGGA,135505.00,3346.525528,N,08423.864930,W,1,11,0.9,288.7,M,-26.8,M,,*48
$GPGSV,2,1,07,05,16,068,26,13,41,047,30,15,75,059,34,24,20,151,34,1*64
$GPGSV,2,2,07,29,42,203,40,02,00,000,,10,11,270,,1*5D
$GLGSV,2,1,07,82,15,156,34,69,55,277,29,83,64,164,26,78,02,094,,1*7F
$GLGSV,2,2,07,70,06,240,,77,03,047,,67,03,045,,1*4B
$GAGSV,1,1,0,7*43
$PQGSV,1,1,0,0*43
$PQGSV,1,1,0,0*43
$GNGSA,A,3,05,13,15,20,21,24,29,,,,,,1.2,0.9,0.8,1*3C
$GNGSA,A,3,69,82,83,84,,,,,,,,,1.2,0.9,0.8,2*32
$GNVTG,213.7,T,213.7,M,2.5,N,4.7,K,A*39
$GNRMC,135506.00,A,3346.524955,N,08423.865317,W,2.5,213.7,101219,2.8,W,A,V*5E
$GNGGA,135506.00,3346.524955,N,08423.865317,W,1,11,0.9,289.6,M,-26.8,M,,*42
$GPGSV,3,1,09,05,16,068,28,13,41,047,30,15,75,059,37,24,20,151,32,1*60
$GPGSV,3,2,09,29,42,203,42,02,00,000,,10,11,270,,20,34,288,,1*67
$GPGSV,3,3,09,21,52,319,,1*52
$GLGSV,2,1,08,82,15,156,31,69,55,277,28,83,64,164,24,78,02,094,,1*76
$GLGSV,2,2,08,70,06,240,,77,03,047,,84,49,326,,67,03,045,,1*72
$GAGSV,1,1,0,7*43
$PQGSV,1,1,0,0*43
$PQGSV,1,1,0,0*43
$GNGSA,A,3,05,13,15,20,21,24,29,,,,,,1.2,0.9,0.8,1*3C
$GNGSA,A,3,69,82,83,84,,,,,,,,,1.2,0.9,0.8,2*32
$GNVTG,215.0,T,215.0,M,2.6,N,4.8,K,A*35
$GNRMC,135507.00,A,3346.524344,N,08423.865738,W,2.6,215.0,101219,2.8,W,A,V*5E
$GNGGA,135507.00,3346.524344,N,08423.865738,W,1,11,0.9,288.4,M,-26.8,M,,*43
$GPGSV,3,1,09,05,16,068,29,13,41,047,30,15,75,059,37,21,52,319,28,1*64
$GPGSV,3,2,09,24,20,151,31,29,42,203,42,02,00,000,,10,11,270,,1*63
$GPGSV,3,3,09,20,34,288,,1*5A
$GLGSV,2,1,08,82,15,156,32,69,55,277,24,84,49,326,23,83,64,164,25,1*7F
$GLGSV,2,2,08,78,02,094,,70,06,240,,77,03,047,,67,03,045,,1*74
$GAGSV,1,1,0,7*43
$PQGSV,1,1,0,0*43
$PQGSV,1,1,0,0*43
$GNGSA,A,3,05,13,15,20,21,24,29,,,,,,1.2,0.9,0.8,1*3C
$GNGSA,A,3,69,82,83,84,,,,,,,,,1.2,0.9,0.8,2*32
$GNVTG,215.0,T,215.0,M,2.5,N,4.7,K,A*39
$GNRMC,135508.00,A,3346.523749,N,08423.866192,W,2.5,215.0,101219,2.8,W,A,V*59
$GNGGA,135508.00,3346.523749,N,08423.866192,W,1,11,0.9,288.7,M,-26.8,M,,*44
$GPGSV,3,1,09,05,16,068,30,13,41,047,30,15,75,059,38,21,52,319,32,1*68
$GPGSV,3,2,09,24,20,151,30,29,42,203,40,02,00,000,,10,11,270,,1*60
$GPGSV,3,3,09,20,34,288,,1*5A
$GLGSV,2,1,08,82,15,156,28,69,55,277,23,84,49,326,24,83,64,164,26,1*77
$GLGSV,2,2,08,78,02,094,,70,06,240,,77,03,047,,67,03,045,,1*74
$GAGSV,1,1,0,7*43
$PQGSV,1,1,0,0*43
$PQGSV,1,1,0,0*43
$GNGSA,A,3,05,13,15,20,21,24,29,,,,,,1.2,0.9,0.8,1*3C
$GNGSA,A,3,69,82,83,84,,,,,,,,,1.2,0.9,0.8,2*32
$GNVTG,212.2,T,212.2,M,2.5,N,4.7,K,A*39
$GNRMC,135509.00,A,3346.523141,N,08423.866677,W,2.5,212.2,101219,2.8,W,A,V*5F
$GNGGA,135509.00,3346.523141,N,08423.866677,W,1,11,0.9,289.5,M,-26.8,M,,*44
$GPGSV,3,1,09,05,16,068,31,13,41,047,30,15,75,059,39,21,52,319,30,1*6A
$GPGSV,3,2,09,24,20,151,28,29,42,203,42,02,00,000,,10,11,270,,1*6B
$GPGSV,3,3,09,20,34,288,,1*5A
$GLGSV,2,1,08,82,15,156,28,69,55,277,28,84,49,326,26,83,64,164,27,1*7F
$GLGSV,2,2,08,78,02,094,,70,06,240,,77,03,047,,67,03,045,,1*74
$GAGSV,1,1,0,7*43
$PQGSV,1,1,0,0*43
$PQGSV,1,1,0,0*43
$GNGSA,A,3,05,13,15,20,21,24,29,,,,,,1.2,0.9,0.8,1*3C
$GNGSA,A,3,69,82,83,84,,,,,,,,,1.2,0.9,0.8,2*32
$GNVTG,204.5,T,204.5,M,2.6,N,4.8,K,A*35
$GNRMC,135510.00,A,3346.522423,N,08423.867038,W,2.6,204.5,101219,2.8,W,A,V*58
$GNGGA,135510.00,3346.522423,N,08423.867038,W,1,11,0.9,289.9,M,-26.8,M,,*4C
$GNGSA,A,3,05,13,15,21,24,29,,,,,,,1.3,1.0,0.9,1*36
$GNGSA,A,3,69,82,83,84,,,,,,,,,1.3,1.0,0.9,2*3A
$GNVTG,196.5,T,196.5,M,2.6,N,4.8,K,A*35
$GNRMC,135511.00,A,3346.521668,N,08423.867281,W,2.6,196.5,101219,2.8,W,A,V*5F
$GNGGA,135511.00,3346.521668,N,08423.867281,W,1,10,1.0,289.5,M,-26.8,M,,*46
$GPGSV,3,1,09,05,16,068,30,13,41,047,30,15,75,059,36,21,52,319,30,1*64
$GPGSV,3,2,09,24,20,151,25,29,42,203,34,02,00,000,,10,11,270,,1*67
$GPGSV,3,3,09,20,34,288,,1*5A
$GLGSV,2,1,08,70,06,240,22,82,15,156,29,69,55,277,26,84,49,326,22,1*7C
$GLGSV,2,2,08,83,64,164,26,78,02,094,,77,03,047,,67,03,045,,1*7D
$GAGSV,1,1,0,7*43
$PQGSV,1,1,0,0*43
$PQGSV,1,1,0,0*43
$GNGSA,A,3,05,13,15,21,24,29,,,,,,,1.2,0.9,0.8,1*3E
$GNGSA,A,3,69,70,82,83,84,,,,,,,,1.2,0.9,0.8,2*35
$GNVTG,192.1,T,192.1,M,2.6,N,4.8,K,A*35
$GNRMC,135512.00,A,3346.520984,N,08423.867524,W,2.6,192.1,101219,2.8,W,A,V*58
$GNGGA,135512.00,3346.520984,N,08423.867524,W,1,11,0.9,289.1,M,-26.8,M,,*4C
$GPGSV,3,1,09,05,16,068,32,13,40,047,32,15,75,059,35,21,52,319,28,1*6F
$GPGSV,3,2,09,24,20,151,27,29,42,203,35,02,00,000,,10,11,270,,1*64
$GPGSV,3,3,09,20,34,288,,1*5A
$GLGSV,2,1,08,70,06,240,24,82,14,156,26,69,55,277,24,84,49,326,23,1*77
$GLGSV,2,2,08,83,63,164,24,78,02,094,,77,03,047,,67,03,045,,1*78
$GAGSV,1,1,0,7*43
$PQGSV,1,1,0,0*43
$PQGSV,1,1,0,0*43
$GNGSA,A,3,05,13,15,21,24,29,,,,,,,1.2,0.9,0.8,1*3E
$GNGSA,A,3,69,70,82,83,84,,,,,,,,1.2,0.9,0.8,2*35
$GNVTG,190.7,T,190.7,M,2.6,N,4.8,K,A*35
$GNRMC,135513.00,A,3346.520270,N,08423.867689,W,2.6,190.7,101219,2.8,W,A,V*59
$GNGGA,135513.00,3346.520270,N,08423.867689,W,1,11,0.9,288.4,M,-26.8,M,,*4D
$GPGSV,3,1,09,05,16,068,34,13,40,047,28,15,75,059,35,21,52,319,30,1*6B
$GPGSV,3,2,09,24,20,151,28,29,42,203,34,02,00,000,,10,11,270,,1*6A
$GPGSV,3,3,09,20,34,288,,1*5A
$GLGSV,2,1,07,82,14,156,29,69,55,277,27,84,49,326,21,83,63,164,21,1*79
$GLGSV,2,2,07,78,02,094,,77,03,047,,67,03,045,,1*4C
$GAGSV,1,1,0,7*43
$PQGSV,1,1,0,0*43
$PQGSV,1,1,0,0*43
$GNGSA,A,3,05,13,15,21,24,29,,,,,,,1.2,0.9,0.8,1*3E
$GNGSA,A,3,69,70,82,83,84,,,,,,,,1.2,0.9,0.8,2*35
$GNVTG,189.6,T,189.6,M,2.6,N,4.8,K,A*35
$GNRMC,135514.00,A,3346.519531,N,08423.867829,W,2.6,189.6,101219,2.8,W,A,V*5B
$GNGGA,135514.00,3346.519531,N,08423.867829,W,1,11,0.9,288.5,M,-26.8,M,,*47
$GPGSV,3,1,09,05,16,068,34,13,40,047,31,15,75,059,36,21,52,319,28,1*69
$GPGSV,3,2,09,24,20,151,33,29,42,203,36,02,00,000,,10,11,270,,1*62
$GPGSV,3,3,09,20,34,288,,1*5A
$GLGSV,2,1,07,82,14,156,32,69,55,277,28,83,63,164,22,78,02,094,,1*7A
$GLGSV,2,2,07,70,06,240,,77,03,047,,67,03,045,,1*4B
$GAGSV,1,1,0,7*43
$PQGSV,1,1,0,0*43
$PQGSV,1,1,0,0*43
$GNGSA,A,3,05,13,15,21,24,29,,,,,,,1.2,0.9,0.8,1*3E
$GNGSA,A,3,69,70,82,83,84,,,,,,,,1.2,0.9,0.8,2*35
$GNVTG,186.7,T,186.7,M,2.6,N,4.9,K,A*34
$GNRMC,135515.00,A,3346.518807,N,08423.867901,W,2.6,186.7,101219,2.8,W,A,V*56
$GNGGA,135515.00,3346.518807,N,08423.867901,W,1,11,0.9,288.7,M,-26.8,M,,*46
